code,name,type,state,latitude,longitude,found,faculty_count,department_count,review_rating,review_count,difficulty_SD,difficulty_rank
F101110100010,Hokkaido University,National,Hokkai Do,43.070446,141.347153,1876-08,33,78,4.16,1389,60.4,A
F101110100029,Hokkaido University of Education,National,Hokkai Do,43.170498,141.393753,1943-04,3,8,3.79,544,47.1,D
F101110100038,Muroran Institute of Technology,National,Hokkai Do,42.378716,141.034042,1897-05,3,10,3.66,126,39,F
F101110100047,Otaru University of Commerce,National,Hokkai Do,43.190952,140.97937,1910-03,2,6,3.8,257,50,C
F101110100056,Obihiro University of Agriculture And Veterinary Medicine,National,Hokkai Do,42.872356,143.177979,1941-04,3,5,4.2,87,54.5,B
F101110100074,Asahikawa Medical University,National,Hokkai Do,43.730633,142.381897,1973-09,2,4,3.93,76,56.8,B
F101110100065,Kitami Institute of Technology,National,Hokkai Do,43.822479,143.905716,1960-04,2,6,3.66,106,39.5,E
F102110100572,Hirosaki University,National,Aomori Ken,40.587959,140.472061,1920-11,13,29,3.84,546,48,D
F103110100731,Iwate University,National,Iwate Ken,39.712715,141.137711,1902-03,9,24,3.89,435,46,D
F104110100856,Tohoku University,National,Miyagi Ken,38.252632,140.873932,1886-04,25,78,4.18,1213,60.3,A
F104110100865,Miyagi University of Education,National,Miyagi Ken,38.258968,140.830948,1965-04,2,4,3.95,182,45.4,D
F105110101051,Akita University,National,Akita Ken,39.726997,140.134094,1910-03,8,25,3.8,367,47.1,D
F106110101176,Yamagata University,National,Yamagata Ken,38.246128,140.349655,1910-03,15,41,3.76,553,47.2,D
F107110101273,Fukushima University,National,Fukushima Ken,37.682877,140.454041,1921-12,7,13,3.72,367,40.6,E
F108110101414,Ibaraki University,National,Ibaraki Ken,36.401237,140.442764,1920-04,11,39,3.81,548,48.7,D
F108110101423,University of Tsukuba,National,Ibaraki Ken,36.108723,140.100632,1973-10,20,97,4.17,1121,60.4,A
F108110101432,Tsukuba University of Technology,National,Ibaraki Ken,36.10537,140.110474,1987-10,3,7,4.12,22,35.7,F
F109110101556,Utsunomiya University,National,Tochigi Ken,36.550312,139.914886,1922-10,9,18,3.95,313,50.9,C
F110110101713,Gunma University,National,Gunma Ken,36.430313,139.045197,1915-12,11,20,3.88,431,52.5,C
F111110101945,Saitama University,National,Saitama Ken,35.862579,139.608246,1921-11,10,43,3.88,784,53,C
F112110102337,Chiba University,National,Chiba Ken,35.625977,140.103653,1921-12,17,38,4.07,1088,58.1,B
F113110102700,The University of Tokyo,National,Tokyo To,35.714146,139.763214,1877-04,25,132,4.34,2206,70.5,S
F113110102719,Tokyo Medical And Dental University,National,Tokyo To,35.701828,139.765274,1928-10,4,12,4.23,158,60.6,A
F113110102728,Tokyo University of Foreign Studies,National,Tokyo To,35.672707,139.521042,1899-04,4,6,4.19,404,63.7,A
F113110102764,Tokyo Gakugei University,National,Tokyo To,35.706203,139.49176,1943-04,4,10,4.08,584,54.5,B
F113110102773,Tokyo University of Agriculture And Technology,National,Tokyo To,35.683945,139.478668,1914-04,6,43,4,374,56.8,B
F113110102737,Tokyo University of The Arts,National,Tokyo To,35.719269,139.772217,1887-10,7,38,4.25,176,54.2,B
F113110102746,Tokyo Institute of Technology,National,Tokyo To,35.606895,139.684875,1881-05,12,12,4.25,433,65,S
F113110102817,Tokyo University of Marine Science And Technology,National,Tokyo To,35.626247,139.746521,1875-11,6,20,4.16,187,53.1,C
F113110102755,Ochanomizu University,National,Tokyo To,35.71973,139.733475,1874-03,4,20,4.3,396,60.6,A
F113110102782,The University of Electro - Communications,National,Tokyo To,35.657433,139.544327,1942-04,2,9,3.92,169,57,B
F113110102791,Hitotsubashi University,National,Tokyo To,35.694389,139.443649,1920-04,10,15,4.26,432,67.9,S
F114110104592,Yokohama National University,National,Kanagawa Ken,35.476898,139.591476,1920-01,13,42,3.9,683,60.8,A
F115110105046,Niigata University,National,Niigata Ken,37.867237,138.943573,1919-04,17,48,3.86,887,49.7,C
F115110105055,Nagaoka University of Technology,National,Niigata Ken,37.424774,138.778793,1976-10,2,11,3.95,65,43,E
F115110105064,Joetsu University of Education,National,Niigata Ken,37.134945,138.22644,1978-10,2,3,4.09,73,51,C
F116110105312,University of Toyama,National,Toyama Ken,36.699642,137.187057,1920-12,21,56,3.81,624,50.8,C
F117110105393,Kanazawa University,National,Ishikawa Ken,36.545948,136.709442,1894-09,12,48,3.76,734,53.3,C
F118110105597,University of Fukui,National,Fukui Ken,36.074238,136.212402,1923-12,10,25,3.83,258,50.6,C
F119110105676,University of Yamanashi,National,Yamanashi Ken,35.678509,138.57341,1924-09,7,23,3.82,252,48.4,D
F120110105771,Shinshu University,National,Nagano Ken,36.249428,137.978943,1910-03,13,29,3.93,767,51.5,C
F121110105976,Gifu University,National,Gifu Ken,35.46553,136.737625,1923-12,14,38,3.93,596,53,C
F122110106224,National University Corporation Shizuoka University,National,Shizuoka Ken,34.966625,138.431412,1922-08,11,35,3.94,703,51.3,C
F122110106233,Hamamatsu University School of Medicine,National,Shizuoka Ken,34.76965,137.74408,1974-06,2,5,3.89,66,64.4,S
F123110106429,Nagoya University,National,Aichi Ken,35.155655,136.964676,1908-04,22,77,4.22,1281,59.6,A
F123110106447,Aichi University of Education,National,Aichi Ken,35.051189,137.049667,1943-04,3,6,3.87,541,51,C
F123110106438,Nagoya Institute of Technology,National,Aichi Ken,35.156868,136.925232,1905-03,2,11,4.01,294,57.3,B
F123110106456,Toyohashi University of Technology,National,Aichi Ken,34.70142,137.408173,1976-10,2,10,3.87,63,53,C
F124110107141,Mie University,National,Mie Ken,34.745785,136.523224,1921-12,11,35,3.94,616,52,C
F125110107284,Shiga University,National,Shiga Ken,35.278313,136.247208,1922-10,7,16,3.83,343,51.7,C
F125110107293,Shiga University of Medical Science,National,Shiga Ken,34.974438,135.946915,1974-10,2,4,3.88,61,60.3,A
F126110107407,Kyoto University,National,Kyoto Fu,35.026962,135.781967,1886-04,28,94,4.2,1434,65.6,S
F126110107416,Kyoto University of Education,National,Kyoto Fu,34.951603,135.773636,1943-04,4,6,3.99,178,51.6,C
F126110107425,Kyoto Institute of Technology,National,Kyoto Fu,35.049767,135.78334,1899-06,2,24,4.04,215,56.4,B
F127110107852,Osaka University,National,Osaka Fu,34.819496,135.521164,1917-04,26,75,4.12,1840,61.3,A
F127110107861,Osaka Kyoiku University,National,Osaka Fu,34.552101,135.64679,1943-04,6,17,3.99,566,52.2,C
F128110108663,Hyogo University of Teacher Education,National,Hyogo Ken,34.912304,135.016373,1978-10,3,7,3.83,84,53.5,C
F128110108654,Kobe University,National,Hyogo Ken,34.726303,135.23613,1902-03,28,69,3.99,1344,60.8,A
F129110109206,Nara University of Education,National,Nara Ken,34.675354,135.847336,1943-04,2,3,3.91,147,51.7,C
F129110109215,Nara Women’s University,National,Nara Ken,34.688999,135.830185,1908-04,5,25,4.06,347,55.2,B
F130110109356,Wakayama University,National,Wakayama Ken,34.266689,135.151962,1922-10,8,10,3.86,386,50.3,C
F131110109417,Tottori University,National,Tottori Ken,35.515392,134.17305,1920-11,9,20,3.83,393,50.6,C
F132110109461,Shimane University,National,Shimane Ken,35.486992,133.068192,1920-11,12,31,3.84,339,48.1,D
F133110109503,Okayama University,National,Okayama Ken,34.686493,133.917404,1900-03,21,67,4.02,1084,53.4,C
F134110109780,Hiroshima University,National,Hiroshima Ken,34.400768,132.713654,1902-04,17,39,4.04,1136,54.2,B
F135110110054,Yamaguchi University,National,Yamaguchi Ken,34.147755,131.467514,1905-04,18,47,3.83,717,49.7,C
F136110110231,Tokushima University,National,Tokushima Ken,34.069912,134.55983,1922-10,12,23,3.81,388,49.7,C
F136110110240,Naruto University of Education,National,Tokushima Ken,34.203056,134.605515,1981-10,2,3,4.16,35,50.2,C
F137110110310,Kagawa University,National,Kagawa Ken,34.343601,134.038727,1923-12,12,22,3.89,432,50.9,C
F138110110382,Ehime University,National,Ehime Ken,33.852291,132.773804,1919-04,13,30,3.93,673,48.7,D
F139110110504,Kochi University,National,Kochi Ken,33.550621,133.488892,1922-08,10,31,3.98,360,48.7,D
F140110110583,University of Teacher Education Fukuoka,National,Fukuoka Ken,33.812565,130.593628,1943-04,3,6,3.86,297,50.4,C
F140110110592,Kyushu University,National,Fukuoka Ken,33.597153,130.223312,1910-12,30,105,4.04,1057,59.1,A
F140110110574,Kyushu Institute of Technology,National,Fukuoka Ken,33.891369,130.838516,1907-07,5,16,3.83,277,52.5,C
F141110111135,Saga University,National,Saga Ken,33.224899,130.288223,1920-04,13,17,3.82,419,50.4,C
F142110111189,Nagasaki University,National,Nagasaki Ken,32.785553,129.862564,1905-03,17,31,3.88,554,50.1,C
F143110111295,Kumamoto University,National,Kumamoto Ken,32.81321,130.727722,1887-05,15,45,3.93,618,52,C
F144110111418,Oita University,National,Oita Ken,33.174316,131.612869,1921-12,12,27,3.89,429,50.3,C
F145110111523,University of Miyazaki,National,Miyazaki Ken,31.828053,131.414993,1943-04,13,31,3.92,354,50.4,C
F146110111620,Kagoshima University,National,Kagoshima Ken,31.572577,130.546463,1901-03,20,69,4.02,706,48.3,D
F146110111639,National Institute of Fitness And Sports In Kanoya,National,Kagoshima Ken,31.395185,130.78717,1981-10,2,6,4.05,55,49,D
F147110111736,University of The Ryukyus,National,Okinawa Ken,26.24585,127.758453,1950-05,15,37,3.91,499,46.1,D
F113110102808,National Graduate Institute For Policy Studies,National,Tokyo To,35.664024,139.726776,1997-10,1,1,5,1,,
F114110104609,"The Graduate University for Advanced Studies, SOKENDAI",National,Kanagawa Ken,35.272079,139.586166,1988-10,6,20,4.58,9,,
F117110105400,Japan Advanced Institute of Science And Technology,National,Ishikawa Ken,36.442867,136.59256,1990-10,1,2,3.58,3,,
F129110109224,Nara Institute of Science And Technology,National,Nara Ken,34.735664,135.731369,1991-10,1,1,4.12,35,,
F101210100081,Sapporo Medical University,Public,Hokkai Do,43.056129,141.331436,1945-04,5,12,4.09,134,55.4,B
F101210100090,Future University Hakodate,Public,Hokkai Do,41.841949,140.766815,1999-12,2,3,4.01,54,43.5,E
F101210100107,Kushiro Public University of Economics,Public,Hokkai Do,43.018459,144.393768,1987-12,1,2,3.47,109,40,E
F101210100116,Nayoro City University,Public,Hokkai Do,44.364567,142.458801,2005-12,1,4,4.05,59,49.5,C
F101210100125,SAPPORO CITY UNIVERSITY,Public,Hokkai Do,42.944695,141.341125,2005-12,5,5,3.94,106,50.5,C
F101210100134,Chitose Institute of Science And Technology,Public,Hokkai Do,42.787975,141.699905,1997-12,2,4,3.89,35,46.5,D
F102210100589,Aomori Public University,Public,Aomori Ken,40.754196,140.769241,1992-12,2,4,3.8,138,43.6,E
F102210100598,Aomori University of Health And Welfare,Public,Aomori Ken,40.814526,140.792755,1998-12,2,5,4.26,112,48.5,D
F103210100748,Iwate Prefectural University,Public,Iwate Ken,39.799114,141.131531,1998-04,8,9,3.95,179,49.3,C
F104210100872,Miyagi Akita Prefectural University,Public,Miyagi Ken,38.3489,140.840469,1996-12,6,9,3.8,211,44.5,D
F105210101068,Akita Prefectural University,Public,Akita Ken,39.804924,140.047287,1998-12,4,13,3.93,121,40.9,E
F105210101077,Akita International University,Public,Akita Ken,39.62706,140.181107,2004-04,2,4,4.18,100,69.7,S
F105210101086,Akita University of Art,Public,Akita Ken,39.685692,140.090866,2012-11,2,2,3.75,27,46.5,D
F106210101183,Yamagata Prefectural University of Health Sciences,Public,Yamagata Ken,38.296722,140.346436,1999-12,2,4,4.03,44,,
F106210101192,Yamagata Prefectural Yonezawa University of Nutrition Sciences,Public,Yamagata Ken,37.891335,140.124496,2013-10,2,2,3.9,10,46,D
F107210101280,Fukushima Medical University,Public,Fukushima Ken,37.689926,140.471603,1947-06,5,10,3.96,68,53.8,C
F107210101299,The University of Aizu,Public,Fukushima Ken,37.523617,139.937897,1992-12,2,3,4.06,68,44,E
F108210101449,Ibaraki Prefectural University of Health Sciences,Public,Ibaraki Ken,36.026962,140.210724,1994-12,3,9,4.09,71,51.1,C
F110210101720,Takasaki City University of Economics,Public,Gunma Ken,36.34544,138.977264,1952-04,4,10,3.67,369,54,C
F110210101739,Maebashi Institute of Technology,Public,Gunma Ken,36.363926,139.080566,1952-04,2,14,3.69,45,43.8,E
F110210101748,Gunma Prefectural Women’s University,Public,Gunma Ken,36.29763,139.112442,1980-01,4,11,4.17,119,51.7,C
F110210101757,Gunma Prefectural College of Health Sciences,Public,Gunma Ken,36.403595,139.095078,2004-11,4,4,4.23,44,51.5,C
F111210101952,Saitama Prefectural University,Public,Saitama Ken,35.929996,139.756241,1999-04,2,6,4.13,174,50.3,C
F112210102353,Chiba Prefectural University of Health Sciences,Public,Chiba Ken,35.651989,140.052032,2008-10,1,4,3.66,80,,
F113210102824,Tokyo Metropolitan University,Public,Tokyo To,35.616882,139.376968,2004-09,18,43,4.06,646,56.7,B
F113210102833,Advanced Institute of Industrial Technology,Public,Tokyo To,35.605923,139.747803,2005-12,1,1,3.65,9,,
F114210104616,Yokohama City University,Public,Kanagawa Ken,35.333984,139.617783,1928-03,11,15,3.87,398,59.2,A
F114210104625,Kanagawa University of Human Services,Public,Kanagawa Ken,35.273666,139.68071,2002-12,3,6,4.14,135,50.6,C
F115210105071,Niigata College of Nursing,Public,Niigata Ken,37.10453,138.269821,2001-12,2,2,4.05,33,50.5,C
F115210105080,University of Niigata Prefecture,Public,Niigata Ken,37.923443,139.127274,2009-04,4,5,4.04,128,49.9,C
F115210105099,Nagaoka Institute of Design,Public,Niigata Ken,37.467224,138.830521,1994-04,2,5,4.1,62,50.2,C
F115210111849,SANJO CITY UNIVERSITY,Public,Niigata Ken,37.643047,138.932938,2021-04,1,1,,,42.5,E
F116210105329,Toyama Prefectural University,Public,Toyama Ken,36.707066,137.097382,1989-12,3,15,3.72,73,43.9,E
F117210105417,Komatsu University,Public,Ishikawa Ken,36.354458,136.416809,2018-04,4,7,3.55,11,49.5,C
F117210105426,Ishikawa Prefectural University,Public,Ishikawa Ken,36.506672,136.597122,2004-11,2,9,3.78,41,49,D
F117210105435,Kanazawa College of Art,Public,Ishikawa Ken,36.555538,136.677475,1946-07,2,9,4,42,51.3,C
F117210105444,Ishikawa Prefectural Nursing University,Public,Ishikawa Ken,36.780563,136.73378,1999-12,2,2,3.82,27,50,C
F118210105602,Fukui Prefectural University,Public,Fukui Ken,36.109333,136.277328,1991-12,7,15,3.66,120,47.6,D
F118210105611,Tsuruga Nursing University,Public,Fukui Ken,35.641552,136.043198,2014-04,3,3,3.89,15,50.5,C
F119210105683,Tsuru University,Public,Yamanashi Ken,35.539513,138.897522,1955-04,4,12,3.83,284,55.1,B
F119210105692,Yamanashi Prefectural University,Public,Yamanashi Ken,35.663467,138.55629,2004-11,4,6,3.8,92,50.9,C
F120210105788,Suwa University of Science,Public,Nagano Ken,36.009003,138.184799,2001-12,2,3,3.85,26,46.8,D
F120210105797,The University of Nagano,Public,Nagano Ken,36.665031,138.200287,2018-04,4,5,3.82,17,49.4,C
F120210105804,Nagano College of Nursing,Public,Nagano Ken,35.745735,137.933121,1994-12,2,2,3.87,25,49,D
F120210105813,Nagano University,Public,Nagano Ken,36.372154,138.223236,1966-01,4,5,3.57,119,50.2,C
F121210105983,Gifu Pharmaceutical University,Public,Gifu Ken,35.467346,136.733551,1931-09,2,4,3.83,51,58,B
F121210105992,Gifu College of Nursing,Public,Gifu Ken,35.306019,136.685806,1999-12,2,2,3.79,46,52,C
F121210106009,Institute of Advanced Media Arts and Sciences,Public,Gifu Ken,35.368057,136.638962,2000-12,1,1,4,1,,
F122210106240,Shizuoka Professional University of Agriculture,Public,Shizuoka Ken,34.729942,137.843948,2020-04,1,1,3,1,50,C
F122210106259,University of Shizuoka,Public,Shizuoka Ken,34.995667,138.444092,1986-12,9,18,3.96,312,50.7,C
F122210106268,Shizuoka University of Art And Culture,Public,Shizuoka Ken,34.713261,137.737991,1999-12,4,6,4.15,145,52.1,C
F122210111877,Shizuoka Graduate University of Public Health,Public,Shizuoka Ken,35.003246,138.386093,2021-04,1,1,,,,
F123210106463,Nagoya City University,Public,Aichi Ken,35.139385,136.935196,1948-04,14,28,3.9,471,56.7,B
F123210106472,Aichi University of The Arts,Public,Aichi Ken,35.165203,137.05867,1966-01,4,5,3.93,81,48.2,D
F123210106481,Aichi Prefectural University,Public,Aichi Ken,35.181957,137.087143,2008-10,9,18,3.99,470,52.5,C
F124210107158,Mie Prefectural College of Nursing,Public,Mie Ken,34.759846,136.488571,1996-12,2,2,3.92,37,50,C
F125210107308,The University of Shiga Prefecture,Public,Shiga Ken,35.259586,136.218903,1994-12,8,22,3.96,204,50,C
F126210107432,Kyoto City University of Arts,Public,Kyoto Fu,34.974239,135.664642,1909-03,4,18,4.04,78,53.4,C
F126210107441,Kyoto Prefectural University,Public,Kyoto Fu,35.050365,135.75975,1895-04,6,19,4.03,251,56.6,B
F126210107450,Kyoto Prefectural University of Medicine,Public,Kyoto Fu,35.029552,135.756714,1872-11,3,5,4,88,60,A
F126210107469,The University of Fukuchiyama,Public,Kyoto Fu,35.284485,135.127457,1999-12,2,3,3.46,18,48.8,D
F127210111989,Osaka Metropolitan University,Public,Osaka Fu,34.646618,135.510162,2022-04,27,76,4.03,73,,
F127210107878,Osaka City University,Public,Osaka Fu,34.591904,135.505142,1928-03,19,50,3.95,621,,
F127210107887,Osaka Prefecture University,Public,Osaka Fu,34.547966,135.505569,1949-04,11,32,3.89,536,,
F128210108670,Kobe City University of Foreign Studies,Public,Hyogo Ken,34.679649,135.059891,1946-03,3,13,4.03,233,59,B
F128210108689,Kobe City College of Nursing,Public,Hyogo Ken,34.687214,135.053818,1995-12,2,2,4.15,42,50,C
F128210108698,University of Hyogo,Public,Hyogo Ken,34.678242,135.051086,2003-07,23,33,3.72,445,51.1,C
F128210111906,Professional College of Arts and Tourism,Public,Hyogo Ken,35.539219,134.816208,2021-04,1,1,3,2,48,D
F129210109231,Nara Medical University,Public,Nara Ken,34.503887,135.792542,1948-04,3,4,3.63,100,59.5,A
F129210109240,Nara Prefectural University,Public,Nara Ken,34.687683,135.82103,1989-12,1,1,3.54,85,51,C
F130210109363,Wakayama Medical University,Public,Wakayama Ken,34.187664,135.181717,1948-02,6,9,3.98,67,57.2,B
F131210109424,Tottori University of Environmental Studies,Public,Tottori Ken,35.450813,134.25531,2000-12,3,4,3.86,73,45.3,D
F132210109478,The University of Shimane,Public,Shimane Ken,34.885452,132.077423,1999-12,8,12,3.8,97,52.3,C
F133210109510,Okayama Prefectural University,Public,Okayama Ken,34.692059,133.780289,1992-12,6,20,3.96,164,49.4,C
F133210109529,Niimi University,Public,Okayama Ken,34.998795,133.439957,2009-10,3,5,4.28,30,50,C
F134210109797,Prefectural University of Hiroshima,Public,Hiroshima Ken,34.367306,132.469666,2004-07,9,21,4,261,48.7,D
F134210109804,Onomichi City University,Public,Hiroshima Ken,34.426105,133.162537,2000-12,5,6,3.76,92,50.1,C
F134210109813,Hiroshima City University,Public,Hiroshima Ken,34.438053,132.415192,1993-12,7,16,3.87,145,51.3,C
F134210109822,Fukuyama City University,Public,Hiroshima Ken,34.481747,133.381149,2010-10,4,4,3.66,78,50.2,C
F134210111926,Eikei University of Hiroshima,Public,Hiroshima Ken,34.396297,132.468719,2021-04,1,1,4,1,48,D
F135210110061,Shimonoseki City University,Public,Yamaguchi Ken,33.987431,130.933365,1956-04,3,5,3.62,187,47.1,D
F135210110070,Yamaguchi Prefectural University,Public,Yamaguchi Ken,34.194012,131.498642,1941-02,6,8,3.99,174,50.4,C
F135210110089,Sanyo-Onoda City University,Public,Yamaguchi Ken,33.957043,131.187805,1994-12,3,5,3.71,56,48.2,D
F137210110327,Kagawa Prefectural University of Health Sciences,Public,Kagawa Ken,34.321964,134.158371,2003-11,3,5,4.15,24,50.3,C
F138210110399,Ehime Prefectural University of Health Sciences,Public,Ehime Ken,33.780685,132.798233,2003-11,3,5,4.18,44,50,C
F139210110511,University of Kochi,Public,Kochi Ken,33.53101,133.580902,1944-12,6,7,4.01,137,51.4,C
F139210110520,Kochi University of Technology,Public,Kochi Ken,33.620975,133.719894,1996-12,5,5,4.02,118,45.9,D
F140210110607,The University of Kitakyushu,Public,Fukuoka Ken,33.843643,130.878265,1946-07,10,25,3.83,538,48.9,D
F140210110616,Kyushu Dental University,Public,Fukuoka Ken,33.871742,130.853775,1921-07,2,4,3.82,41,48,D
F140210110625,Fukuoka Women's University,Public,Fukuoka Ken,33.665958,130.438522,1922-06,3,6,4.09,151,51.2,C
F140210110634,Fukuoka Prefectural University,Public,Fukuoka Ken,33.649834,130.814484,1991-12,4,8,3.88,178,50.4,C
F142210111196,University of Nagasaki,Public,Nagasaki Ken,33.186432,129.665451,2007-12,6,13,3.74,241,46.4,D
F143210111300,Prefectural University of Kumamoto,Public,Kumamoto Ken,32.806938,130.764236,1947-03,6,8,3.8,189,49.1,C
F144210111425,Oita University of Nursing And Health Sciences,Public,Oita Ken,33.154671,131.557205,1997-12,2,3,3.73,38,,
F145210111530,Miyazaki Municipal University,Public,Miyazaki Ken,31.925987,131.417236,1992-12,1,1,3.9,89,47,D
F145210111549,Miyazaki Prefectural Nursing University,Public,Miyazaki Ken,31.857765,131.41423,1996-12,3,3,4.21,29,50.5,C
F147210111743,Meio University,Public,Okinawa Ken,26.6168,127.969719,1993-12,5,7,3.87,129,42.3,E
F147210111752,Okinawa Prefectural University of Arts,Public,Okinawa Ken,26.219156,127.718552,1986-04,5,10,3.92,23,46.5,D
F147210111761,Okinawa Prefectural College of Nursing,Public,Okinawa Ken,26.206566,127.694443,1998-10,3,3,4.08,19,46.5,D
F135310110103,Shunan University,Public,Yamaguchi Ken,34.047821,131.84494,1971-03,2,3,3.4,35,46.3,D
F114210111993,Kawasaki City College of Nursing,Public,Kanagawa Ken,35.536179,139.669891,2022-04,1,1,3,1,50,C
F101310100141,Sapporo University,Private,Hokkai Do,43.010437,141.387207,1967-02,2,2,3.79,146,36.3,F
F101310100150,Sapporo Gakuin University,Private,Hokkai Do,43.067093,141.492981,1946-06,9,11,3.85,158,37.8,F
F101310100169,Hakodate University,Private,Hokkai Do,41.78883,140.806671,1965-04,1,1,3.55,27,35.5,F
F101310100178,Fuji Women’s University,Private,Hokkai Do,43.079823,141.350479,1961-03,3,9,3.98,288,35.6,F
F101310100187,Hokusei Gakuen University,Private,Hokkai Do,43.023792,141.448715,1962-01,6,12,3.9,396,44.5,D
F101310100196,Hokkai - Gakuen University,Private,Hokkai Do,43.046837,141.369034,1952-03,14,20,3.81,637,42.3,E
F101310100203,Hokkaido University of Science,Private,Hokkai Do,43.134399,141.246552,1967-01,8,25,3.77,198,41.3,E
F101310100212,Rakuno Gakuen University,Private,Hokkai Do,43.071857,141.508728,1960-01,4,11,3.77,223,43,E
F101310100221,AsahikawaUniversity,Private,Hokkai Do,43.817345,142.445099,1968-02,3,4,3.74,68,,
F101310100230,Health Sciences University of Hokkaido,Private,Hokkai Do,43.246895,141.561859,1974-02,11,15,3.89,213,41.2,E
F101310100249,Hokkai School of Commerce,Private,Hokkai Do,43.047962,141.370026,1977-01,2,3,3.61,35,35.3,F
F101310100258,Seisa Dohto University,Private,Hokkai Do,42.980564,141.538483,1978-02,3,4,3.87,25,36.6,F
F101310100267,Hokkaido Information University,Private,Hokkai Do,43.078266,141.537704,1988-12,5,7,3.83,90,39.2,E
F101310100276,Sapporo International University,Private,Hokkai Do,43.002434,141.424561,1992-12,6,10,3.85,109,35.5,F
F101310100285,Hokusho University,Private,Hokkai Do,43.063904,141.489609,1996-12,5,9,3.96,129,37,F
F101310100294,Hokuyo University,Private,Hokkai Do,42.600338,141.464294,1997-12,1,1,3.97,13,35.5,F
F101310100301,Japanese Red Cross Hokkaido College of Nursing,Private,Hokkai Do,43.830696,143.908508,1998-12,2,3,3.94,60,36,F
F101310100310,Hokkaido Bunkyo University,Private,Hokkai Do,42.890831,141.591461,1998-12,8,13,3.62,180,36.3,F
F101310100329,Tenshi College,Private,Hokkai Do,43.077644,141.357895,1999-12,3,5,4.02,84,47,D
F101310100338,Ikueikan University,Private,Hokkai Do,45.383553,141.718567,1999-12,2,2,4.43,14,35,F
F101310100347,Sapporo Otani University,Private,Hokkai Do,43.082176,141.36557,2006-04,2,3,3.94,79,36.4,F
F101310100356,Sapporo University of Health Sciences,Private,Hokkai Do,43.132084,141.41246,2012-11,1,2,3.63,20,38.8,F
F101310100365,Japan HealthCare University,Private,Hokkai Do,43.028351,141.409714,2014-04,3,8,3.54,17,39,F
F101310100374,Hokkaido Chitose College of Rehabilitation,Private,Hokkai Do,42.785515,141.598404,2017-04,1,1,3.69,13,35.5,F
F102310100603,Aomori University,Private,Aomori Ken,40.783684,140.78096,1968-03,4,4,3.5,80,36.5,F
F102310100612,Shibata Gakuen University,Private,Aomori Ken,40.581272,140.485275,1969-02,1,2,3.92,96,35.3,F
F102310100621,Hirosaki Gakuin University,Private,Aomori Ken,40.581535,140.465637,1971-01,5,6,3.41,54,35.5,F
F102310100630,Hachinohe Institute of Technology,Private,Aomori Ken,40.479317,141.562363,1972-01,3,10,3.61,59,35.5,F
F102310100649,Hachinohe Gakuin University,Private,Aomori Ken,40.486752,141.571655,1981-01,2,3,3.69,33,35.5,F
F102310100658,Aomori Chuo Gakuin University,Private,Aomori Ken,40.783215,140.76239,1997-12,4,4,3.66,57,36,F
F102310100667,Hirosaki University of Health and Welfare,Private,Aomori Ken,40.588799,140.500473,2008-10,1,2,3.71,35,38,F
F103310100755,Iwate Medical University,Private,Iwate Ken,39.613033,141.161285,1928-02,7,13,3.57,78,46.3,D
F103310100764,Fuji University,Private,Iwate Ken,39.361206,141.102646,1965-01,2,3,3.63,33,35.5,F
F103310100773,The University of Morioka,Private,Iwate Ken,39.816113,141.137207,1981-01,2,5,3.78,152,35.1,F
F103310100782,Iwate University of Health and Medical Sciences,Private,Iwate Ken,39.703228,141.131851,2016-08,2,2,3.33,10,38,F
F104310100889,Sendai University,Private,Miyagi Ken,38.051693,140.771561,1967-01,2,7,3.63,104,35.7,F
F104310100898,Tohoku Gakuin University,Private,Miyagi Ken,38.249531,140.877304,1946-03,12,29,3.75,781,45.5,D
F104310100905,Tohoku Institute of Technology,Private,Miyagi Ken,38.245861,140.852432,1964-01,5,15,3.62,140,38,F
F104310100914,Tohoku Fukushi University,Private,Miyagi Ken,38.280109,140.847824,1962-01,8,15,3.78,493,44,E
F104310100923,Tohoku Medical And Pharmaceutical University,Private,Miyagi Ken,38.285049,140.885559,1939-04,3,5,3.74,140,51.9,C
F104310100932,Tohoku Seikatsu Bunka University,Private,Miyagi Ken,38.302814,140.87027,1958-01,2,2,3.64,44,36.5,F
F104310100941,Miyagi Gakuin Women’s University,Private,Miyagi Ken,38.307381,140.853912,1946-06,6,14,3.9,296,37.5,F
F104310100950,Ishinomaki Senshu University,Private,Miyagi Ken,38.454735,141.295639,1988-12,5,13,3.65,62,35.3,F
F104310100969,Sendai Shirayuri Women’s College,Private,Miyagi Ken,38.3214,140.902542,1995-12,1,4,3.58,73,36,F
F104310100978,Tohoku Bunka Gakuen University,Private,Miyagi Ken,38.277546,140.834534,1998-12,7,11,3.69,84,35.9,F
F104310100987,Shokei Gakuin University,Private,Miyagi Ken,38.196583,140.830078,2002-12,4,8,3.82,108,36.3,F
F105310101093,North Asia University,Private,Akita Ken,39.716419,140.157944,1964-01,3,4,3.26,39,35.5,F
F105310101100,Akita University of Nursing And Welfare,Private,Akita Ken,40.281265,140.554398,2004-11,1,2,4.15,32,35.5,F
F105310101119,Japanese Red Cross Akita College of Nursing,Private,Akita Ken,39.685078,140.155457,2008-10,2,3,3.84,25,36.5,F
F106310101207,Tohoku University of Art & Design,Private,Yamagata Ken,38.218594,140.344955,1992-04,3,13,4.12,131,49.7,C
F106310101216,Tohoku University of Community Service And Science,Private,Yamagata Ken,38.892662,139.817368,2000-12,2,3,3.48,39,35.5,F
F106310101225,Tohoku Bunkyo College,Private,Yamagata Ken,38.209637,140.303146,2010-10,2,3,3.82,35,38,F
F107310101304,Koriyama Women’s University,Private,Fukushima Ken,37.396683,140.352661,1966-01,2,3,3.76,59,35.7,F
F107310101313,Ohu University,Private,Fukushima Ken,37.41716,140.37413,1972-02,3,3,3.55,38,35,F
F107310101322,Iryo Sosei University,Private,Fukushima Ken,37.018524,140.918915,1986-04,8,9,3.46,65,35.6,F
F107310101331,Higashi Nippon International University,Private,Fukushima Ken,37.057358,140.907944,1994-12,3,3,3.85,28,36,F
F107310101340,Fukushima College,Private,Fukushima Ken,37.799988,140.487549,2002-12,2,3,3.86,35,35,F
F108310101456,Ibaraki Christian University,Private,Ibaraki Ken,36.514248,140.617523,1967-04,7,11,3.87,171,41.4,E
F108310101465,Ryutsu Keizai University,Private,Ibaraki Ken,35.920582,140.168472,1965-01,12,17,3.71,203,38.9,F
F108310101474,Tokiwa University,Private,Ibaraki Ken,36.382111,140.438705,1983-01,5,11,3.75,135,38.8,F
F108310101483,Tsukuba International University,Private,Ibaraki Ken,36.107651,140.198837,1993-12,1,6,3.68,79,36.7,F
F108310101492,Tsukuba Gakuin University,Private,Ibaraki Ken,36.087753,140.107864,1995-12,1,1,3.53,22,,
F108310101508,Nihon Wellness Sports University,Private,Ibaraki Ken,35.859886,140.145737,2012-04,3,3,3.58,6,35,F
F109310101561,Ashikaga University,Private,Tochigi Ken,36.35326,139.396027,1967-01,3,4,3.66,42,36.4,F
F109310101570,Hakuoh University,Private,Tochigi Ken,36.313366,139.807495,1985-12,5,5,3.9,363,40.6,E
F109310101589,Sakushin Gakuin University,Private,Tochigi Ken,36.544083,139.973999,1989-04,4,7,3.83,45,36.5,F
F109310101598,International University of Health And Welfare,Private,Tochigi Ken,36.87048,140.069229,1994-12,16,20,3.92,408,44.2,D
F109310101605,Utsunomiya Kyowa University,Private,Tochigi Ken,36.560459,139.890869,1999-04,2,2,3.87,21,35.5,F
F109310101614,Bunsei University of Art,Private,Tochigi Ken,36.598911,139.859558,1998-12,2,2,3.8,12,36,F
F109310101623,Jichi Medical University,Private,Tochigi Ken,36.4034,139.858521,1972-02,4,7,4.1,64,58,B
F109310101632,Dokkyo Medical University,Private,Tochigi Ken,36.472305,139.825363,1972-07,5,9,3.95,63,57,B
F110310101764,Ikuei University,Private,Gunma Ken,36.349194,139.050339,2017-08,1,1,3.81,5,36.5,F
F110310101773,Kiryu University,Private,Gunma Ken,36.378597,139.295685,2007-12,2,3,3.43,35,38.8,F
F110310101782,Gunma Paz University,Private,Gunma Ken,36.349514,139.008804,2004-11,5,8,3.79,49,43.2,E
F110310101791,Gunma University of Health And Welfare,Private,Gunma Ken,36.355843,139.047913,2001-12,5,5,3.49,73,41.5,E
F110310101808,Takasaki University of Health And Welfare,Private,Gunma Ken,36.324902,139.054886,2000-12,9,15,3.76,139,43.1,E
F110310101817,Takasaki University of Commerce,Private,Gunma Ken,36.28566,139.034241,2001-04,2,3,3.85,41,40,E
F110310101826,Jobu University,Private,Gunma Ken,36.279305,139.176224,1968-03,3,4,3.6,54,36.7,F
F110310101835,Kanto Gakuen University,Private,Gunma Ken,36.286465,139.356094,1976-01,1,2,3.72,63,36,F
F110310101844,KYOAI GAKUEN UNIVERSITY,Private,Gunma Ken,36.35886,139.144562,1998-12,1,1,3.96,92,39.8,E
F111310101969,Nihon Institute of Medical Science,Private,Saitama Ken,35.931942,139.343781,2006-11,1,5,3.16,64,39.2,E
F111310101978,Nihon Pharmaceutical University,Private,Saitama Ken,35.991798,139.617203,2003-11,2,3,3.44,84,36.7,F
F111310101987,Musashino Gakuin University,Private,Saitama Ken,35.866592,139.387009,2003-11,2,3,3.71,17,35.5,F
F111310101996,Urawa University,Private,Saitama Ken,35.890373,139.712662,2002-12,2,4,4.04,54,35.5,F
F111310102003,Institute of Technologists,Private,Saitama Ken,36.115143,139.456436,2001-04,2,3,3.83,51,35.5,F
F111310102012,Kyoei University,Private,Saitama Ken,35.995708,139.722092,2000-12,3,3,3.53,51,39,F
F111310102021,Saitama Gakuen University,Private,Saitama Ken,35.857311,139.713959,2000-12,5,7,3.65,85,38.8,F
F111310102030,Shobi University,Private,Saitama Ken,35.906914,139.460602,1999-12,5,10,3.65,131,35,F
F111310102049,University of Human Arts And Sciences,Private,Saitama Ken,35.970203,139.658371,1999-12,4,6,3.61,62,36.1,F
F111310102058,Bunri University of Hospitality,Private,Saitama Ken,35.891426,139.418518,1998-12,2,3,3.49,78,35.5,F
F111310102067,Jumonji University,Private,Saitama Ken,35.799313,139.552094,1996-04,5,14,3.81,229,37.4,F
F111310102076,Heisei International University,Private,Saitama Ken,36.096184,139.637634,1995-12,3,4,3.74,32,35.5,F
F111310102085,Tokyo International University,Private,Saitama Ken,35.927303,139.437866,1965-01,11,15,3.96,424,36.7,F
F111310102094,Josai University,Private,Saitama Ken,35.933132,139.34201,1965-01,10,17,3.52,275,37.4,F
F111310102101,Toho College of Music,Private,Saitama Ken,35.896595,139.523529,1965-01,2,2,4.02,31,,
F111310102110,Dokkyo University,Private,Saitama Ken,35.83942,139.794189,1964-04,7,16,3.95,682,50.4,C
F111310102129,Nippon Institute of Technology,Private,Saitama Ken,36.026604,139.713486,1967-03,6,13,3.66,117,36.9,F
F111310102138,Meikai University,Private,Saitama Ken,35.933132,139.34201,1970-03,11,13,3.77,234,39.5,E
F111310102147,Saitama Medical University,Private,Saitama Ken,35.936001,139.304062,1972-02,4,10,3.8,79,46.7,D
F111310102156,Saitama Institute of Technology,Private,Saitama Ken,36.19603,139.238739,1976-01,4,10,3.59,79,35.5,F
F111310102165,Surugadai University,Private,Saitama Ken,35.835243,139.334778,1986-12,8,11,3.75,154,42.1,E
F111310102174,Seigakuin University,Private,Saitama Ken,35.937756,139.595535,1988-04,6,8,3.7,71,35.5,F
F111310102183,Kagawa Nutrition University,Private,Saitama Ken,35.952763,139.410965,1961-03,2,5,4.12,223,43.3,E
F111310102192,Tohto University,Private,Saitama Ken,36.18111,139.298462,2008-10,4,4,3.46,40,36,F
F111310102209,Japan University of Health Sciences,Private,Saitama Ken,36.071983,139.73082,2009-10,1,2,3.33,24,35.5,F
F112310102360,Chiba Institute of Science,Private,Chiba Ken,35.701206,140.846268,2003-11,7,12,3.31,73,37.4,F
F112310102379,Aikoku Gakuen University,Private,Chiba Ken,35.666553,140.157578,1997-12,1,1,3.68,11,38,F
F112310102388,Kaichi International University,Private,Chiba Ken,35.862244,139.987976,1999-12,3,3,4.07,23,35.7,F
F112310102397,Seiwa University,Private,Chiba Ken,35.376106,139.958008,1993-12,1,1,3.19,27,37.5,F
F112310102404,Josai International University,Private,Chiba Ken,35.580254,140.395966,1991-12,14,20,3.61,247,38.9,F
F112310102413,Shukutoku University,Private,Chiba Ken,35.574577,140.144501,1965-01,8,14,3.81,307,40.4,E
F112310102422,Keiai University,Private,Chiba Ken,35.633312,140.103821,1966-01,3,4,3.74,69,37.8,F
F112310102431,Chiba Institute of Technology,Private,Chiba Ken,35.688942,140.021255,1942-05,10,32,3.75,361,46.2,D
F112310102440,Chiba University of Commerce,Private,Chiba Ken,35.742493,139.907028,1928-02,9,11,3.69,213,43.4,E
F112310102459,Chuogakuin University,Private,Chiba Ken,35.8829,140.01796,1966-01,4,4,3.76,119,38.2,F
F112310102468,Reitaku University,Private,Chiba Ken,35.831802,139.951187,1942-04,6,9,3.81,118,39.3,E
F112310102477,Wayo Women’s University,Private,Chiba Ken,35.742989,139.904266,1928-10,6,12,4.05,199,37.7,F
F112310102486,International Budo University,Private,Chiba Ken,35.161568,140.322876,1983-12,3,4,3.59,53,37.8,F
F112310102495,Kanda University of International Studies,Private,Chiba Ken,35.656132,140.042236,1987-04,4,9,4.05,334,45.2,D
F112310102501,Chiba Keizai University,Private,Chiba Ken,35.62973,140.109146,1987-12,2,3,3.65,72,43,E
F112310102510,Shumei University,Private,Chiba Ken,35.77285,140.099426,1987-12,5,5,3.93,84,40.9,E
F112310102529,Kawamura Gakuen Woman’s University,Private,Chiba Ken,35.875843,140.053757,1987-12,4,11,3.51,79,37.6,F
F112310102538,Tokyo University of Information Sciences,Private,Chiba Ken,35.637684,140.203354,1988-04,3,3,3.83,104,41.5,E
F112310102547,Tokyo Christian University,Private,Chiba Ken,35.789703,140.125168,1989-12,3,5,4.23,33,,
F112310102556,Seitoku University,Private,Chiba Ken,35.783543,139.903381,1989-12,18,25,3.6,350,37.9,F
F112310102565,Edogawa University,Private,Chiba Ken,35.877056,139.938934,1989-12,2,6,3.57,111,42.4,E
F112310102574,Ryotokuji University,Private,Chiba Ken,35.639462,139.926636,2005-12,1,3,3.66,54,39.3,E
F112310102583,Uekusa Gakuen University,Private,Chiba Ken,35.634373,140.181976,2007-12,2,2,3.88,62,36.2,F
F112310102592,Saniku Gakuin College,Private,Chiba Ken,35.243866,140.262909,2007-12,2,2,4.08,14,38,F
F112310102609,Kameda University of Health Sciences,Private,Chiba Ken,35.102497,140.100525,2011-10,2,2,3.31,8,35,F
F113310102840,Tokyo University of Social Welfare,Private,Gunma Ken,36.285713,139.194138,1999-12,14,15,3.82,367,35.5,F
F113310102859,Atomi University,Private,Tokyo To,35.71693,139.734116,1965-01,6,11,3.83,323,41.1,E
F113310102868,Bunkyo University,Private,Tokyo To,35.605209,139.705902,1966-01,14,25,3.89,676,46.7,D
F113310102877,Bunkyo Gakuin University,Private,Tokyo To,35.718536,139.757568,1990-12,9,16,3.74,242,36.9,F
F113310102886,Mejiro University,Private,Tokyo To,35.716835,139.681244,1993-12,15,27,3.51,362,39.4,E
F113310102895,Tokyo Seitoku University,Private,Tokyo To,35.756275,139.72403,1992-12,6,9,3.87,118,38,F
F113310102902,Toyo Gakuen University,Private,Tokyo To,35.704567,139.757568,1992-04,4,5,3.54,99,38.3,F
F113310102911,Teikyo Heisei University,Private,Tokyo To,35.732563,139.718811,1986-12,12,30,3.8,669,40.7,E
F113310102920,Aoyama Gakuin University,Private,Tokyo To,35.6618,139.708862,1949-04,22,52,4.03,1871,60.2,A
F113310102939,Ueno Gakuen University,Private,Tokyo To,35.715767,139.782227,1958-01,2,4,3.69,35,,
F113310102948,Otsuma Women’s University,Private,Tokyo To,35.69109,139.742264,1949-03,6,15,3.95,613,44.4,D
F113310102957,Gakushuin University,Private,Tokyo To,35.721264,139.707245,1877-10,12,38,4.11,805,56.8,B
F113310102966,Kitasato University,Private,Tokyo To,35.645351,139.725525,1962-04,14,27,3.98,621,46.6,D
F113310102975,Kyoritsu Women’s University,Private,Tokyo To,35.693314,139.757553,1928-10,9,16,3.92,489,45.7,D
F113310102984,Keio University,Private,Tokyo To,35.649147,139.742828,1890-01,28,59,4.19,2682,66.3,S
F113310102993,Kogakuin University,Private,Tokyo To,35.690514,139.695648,1944-03,7,24,3.64,249,56,B
F113310103000,Kokugakuin University,Private,Tokyo To,35.655972,139.711365,1904-04,11,22,3.91,715,,
F113310103019,Kokushikan University,Private,Tokyo To,35.646896,139.653458,1929-04,17,29,3.75,503,44.7,D
F113310103028,Komazawa University,Private,Tokyo To,35.628857,139.65863,1882-10,16,32,3.73,990,52.1,C
F113310103037,Jissen Women’s University,Private,Tokyo To,35.67152,139.38974,1925-01,6,15,3.92,375,45.8,D
F113310103046,Shibaura Institute of Technology,Private,Tokyo To,35.659737,139.794281,1927-07,5,28,3.94,376,53.5,C
F113310103055,Juntendo University,Private,Tokyo To,35.701954,139.761734,1944-04,10,15,4.07,276,53.9,C
F113310103064,Sophia University,Private,Tokyo To,35.683189,139.732742,1913-03,20,57,4.2,1120,62.3,A
F113310103073,Showa University,Private,Tokyo To,35.60899,139.704071,1928-04,9,15,3.91,216,53.9,C
F113310103082,Showa Women’s University,Private,Tokyo To,35.645466,139.675186,1946-04,9,25,3.94,549,51.6,C
F113310103091,Showa Pharmaceutical University,Private,Tokyo To,35.55368,139.470673,1930-11,2,3,3.55,74,50.3,C
F113310103108,Joshibi University of Art And Design,Private,Tokyo To,35.693089,139.662079,1900-10,2,6,4,154,41,E
F113310103117,Sugino Fashion College,Private,Tokyo To,35.631489,139.71553,1964-04,3,4,3.51,45,35.5,F
F113310103126,Seijo University,Private,Tokyo To,35.642353,139.600174,1926-03,8,21,3.81,440,54.5,B
F113310103135,"University of The Sacred Heart, Tokyo",Private,Tokyo To,35.653835,139.717285,1916-04,2,15,4.33,148,45,D
F113310103144,Seisen University,Private,Tokyo To,35.626957,139.729797,1950-02,3,10,4.15,186,42.2,E
F113310103153,St.Luke’s International University,Private,Tokyo To,35.668316,139.775391,1920-10,3,4,4.41,42,59.7,A
F113310103162,Senshu University,Private,Tokyo To,35.6968,139.753876,1880-09,17,37,3.74,1185,50.2,C
F113310103171,Taisho University,Private,Tokyo To,35.741486,139.728256,1926-04,11,22,3.8,311,41.3,E
F113310103180,Daito Bunka University,Private,Tokyo To,35.782089,139.667938,1923-09,17,37,3.69,571,43.8,E
F113310103199,Takachiho University,Private,Tokyo To,35.682804,139.638245,1912-05,4,4,3.56,85,38,F
F113310103206,Takushoku University,Private,Tokyo To,35.715481,139.737274,1900-06,12,25,3.64,423,41.2,E
F113310103215,Tama Art University,Private,Tokyo To,35.61409,139.637085,1935-10,2,17,3.95,196,45.1,D
F113310103224,Chuo University,Private,Tokyo To,35.638794,139.399811,1885-07,17,61,3.91,2298,57.9,B
F113310103233,Tokai University,Private,Kanagawa Ken,35.359573,139.271378,1946-05,44,120,3.8,1430,43.4,E
F113310103242,Tokyo Medical University,Private,Tokyo To,35.69355,139.71225,1916-09,2,10,3.9,52,61,A
F113310103251,Tokyo Kasei University,Private,Tokyo To,35.756275,139.719482,1922-12,6,20,3.95,598,43.6,E
F113310103260,Tokyo Kasei Gakuin University,Private,Tokyo To,35.60841,139.310562,1963-01,3,8,3.57,98,36.3,F
F113310103279,Tokyo Dental College,Private,Tokyo To,35.701309,139.754852,1890-01,2,2,4.16,53,55.5,B
F113310103288,The Jikei University School of Medicine,Private,Tokyo To,35.662537,139.75029,1921-10,2,4,4.28,50,60,A
F113310103297,Tokyo Woman's Christian University,Private,Tokyo To,35.709896,139.591202,1918-03,3,10,3.93,442,52.3,C
F113310103304,Tokyo Women’s Medical University,Private,Tokyo To,35.696342,139.719635,1900-12,4,10,4.29,50,53,C
F113310103313,Tokyo Denki University,Private,Tokyo To,35.748764,139.806381,1939-04,11,36,3.68,376,49.3,C
F113310103322,Tokyo University of Agriculture,Private,Tokyo To,35.640781,139.631912,1891-03,12,51,3.94,814,47.3,D
F113310103331,Tokyo University of Pharmacy And Life Sciences,Private,Tokyo To,35.638222,139.385071,1880-11,4,9,3.82,212,48.2,D
F113310103340,Tokyo University of Science,Private,Tokyo To,35.699505,139.741348,1881-06,17,51,3.85,1128,57.2,B
F113310103359,Toho University,Private,Tokyo To,35.570171,139.724884,1925-03,9,20,3.98,267,48.1,D
F113310103368,Toyo University,Private,Tokyo To,35.724289,139.750763,1903-10,38,81,3.83,1870,51.2,C
F113310103377,Tokyo College of Music,Private,Tokyo To,35.647171,139.699265,1954-02,2,6,4.14,145,35,F
F113310103386,Nishogakusha University,Private,Tokyo To,35.691261,139.74527,1928-02,5,10,3.67,192,,
F113310103395,Nihon University,Private,Tokyo To,35.691322,139.737396,1889-10,40,149,3.71,3665,47.3,D
F113310103402,Nippon Medical School,Private,Tokyo To,35.721233,139.758453,1904-04,2,2,3.99,31,70,S
F113310103411,The Nippon Dental University,Private,Tokyo To,35.697971,139.746216,1907-06,4,4,3.16,35,46.3,D
F113310103420,Japan College of Social Work,Private,Tokyo To,35.767517,139.508698,1946-11,3,4,3.86,85,40,E
F113310103439,Japan Women’s University,Private,Tokyo To,35.715923,139.721085,1900-12,10,35,4.09,748,53.3,C
F113310103448,Japan Women’s College of Physical Education,Private,Tokyo To,35.676498,139.590546,1922-04,2,7,4,213,35.5,F
F113310103457,Nippon Sport Science University,Private,Tokyo To,35.621609,139.650009,1941-03,9,16,4.03,382,40,E
F113310103466,Japan Lutheran College,Private,Tokyo To,35.686474,139.527481,1909-09,2,3,3.97,35,35.7,F
F113310103475,Bunka Gakuen University,Private,Tokyo To,35.685848,139.693954,1964-01,5,11,4.08,143,41.2,E
F113310103484,Hosei University,Private,Tokyo To,35.695679,139.74115,1903-08,35,74,3.89,2242,58.7,B
F113310103493,Hoshi University,Private,Tokyo To,35.618053,139.712601,1941-04,2,4,3.9,145,56,B
F113310103509,Musashi University,Private,Tokyo To,35.736893,139.666885,1921-12,6,13,3.96,341,56,B
F113310103518,Tokyo City University,Private,Tokyo To,35.596542,139.650925,1929-09,9,25,3.88,396,50.1,C
F113310103527,Musashino Academia Musicae,Private,Tokyo To,35.741283,139.672195,1929-02,4,12,3.86,96,35,F
F113310103536,Meiji University,Private,Tokyo To,35.697712,139.761398,1903-08,26,65,4.01,2765,60.8,A
F113310103545,Meiji Gakuin University,Private,Tokyo To,35.636738,139.730743,1903-11,13,28,3.9,976,54.2,B
F113310103554,Meiji Pharmaceutical University,Private,Tokyo To,35.781338,139.50618,1902-03,2,4,3.93,175,50.6,C
F113310103563,Rikkyo University,Private,Tokyo To,35.729706,139.704742,1949-02,24,54,4.09,1811,60.6,A
F113310103572,Rissho University,Private,Tokyo To,35.62101,139.724075,1904-04,16,33,3.76,602,42.3,E
F113310103581,Waseda University,Private,Tokyo To,35.710083,139.722244,1902-10,35,94,4.14,4280,65.7,S
F113310103590,International College For Postgraduate Buddhist Studies,Private,Tokyo To,35.710667,139.740997,1995-12,1,1,5,1,,
F113310103607,Gakushuin Women’s College,Private,Tokyo To,35.706844,139.713242,1998-04,2,4,4.19,159,45,D
F113310103616,International Professional University of Technology in Tokyo,Private,Tokyo To,35.691559,139.698044,2020-04,2,3,4,1,,
F113310103625,Tokyo Professional University of Health Sciences,Private,Tokyo To,35.66444,139.813049,2020-04,1,2,,,36.5,F
F113310103634,Professional University of Information and Management for Innovation,Private,Tokyo To,35.711437,139.823807,2020-04,1,1,3.5,2,35,F
F113310103643,"Graduate School of Leadership and Innovation, Shizenkan University",Private,Tokyo To,35.681751,139.773468,2017-08,1,1,,,,
F113310103652,Tokyo Online University,Private,Tokyo To,35.691559,139.698044,2018-04,2,2,3.78,201,,
F113310103661,Professional Institute of International Fashion,Private,Tokyo To,35.691559,139.698044,2019-04,1,4,4,4,,
F113310103670,Komazawa Women’s University,Private,Tokyo To,35.628113,139.493988,1992-12,5,12,3.74,171,41.8,E
F113310103689,Asia University,Private,Tokyo To,35.705235,139.534866,1955-03,9,11,3.75,392,40.1,E
F113310103698,J.F.Oberlin University,Private,Tokyo To,35.582386,139.405487,1966-01,9,7,3.8,521,39.4,E
F113310103705,Kunitachi College of Music,Private,Tokyo To,35.732414,139.410995,1926-04,3,12,4.09,179,39,F
F113310103714,International Christian University,Private,Tokyo To,35.686474,139.527481,1953-03,2,6,4.43,206,68,S
F113310103723,Shirayuri University,Private,Tokyo To,35.668129,139.581207,1946-03,3,12,3.92,194,39.7,E
F113310103732,Seikei University,Private,Tokyo To,35.710575,139.572693,1925-02,9,19,3.95,559,53.3,C
F113310103741,Tamagawa University,Private,Tokyo To,35.567326,139.464844,1945-03,16,33,3.78,495,46,D
F113310103750,Tsuda University,Private,Tokyo To,35.721451,139.465271,1900-09,5,10,4.11,384,50,C
F113310103769,Teikyo University,Private,Tokyo To,35.759392,139.714478,1966-01,24,57,3.71,1133,42.9,E
F113310103778,Tokyo Keizai University,Private,Tokyo To,35.700047,139.488266,1900-07,8,11,3.87,339,48.7,D
F113310103787,Tokyo Women’s College of Physical Education,Private,Tokyo To,35.689056,139.427765,1962-01,1,1,3.8,112,35.5,F
F113310103796,Tokyo Union Theological Seminary,Private,Tokyo To,35.686474,139.527481,1944-04,2,3,2.86,2,,
F113310103803,Tokyo Zokei University,Private,Tokyo To,35.617332,139.334259,1966-01,2,3,3.86,82,40.8,E
F113310103812,Toho Gakuen School of Music,Private,Tokyo To,35.659061,139.584274,1955-02,2,2,4.35,87,35,F
F113310103821,Nippon Veterinary And Life Science University,Private,Tokyo To,35.701889,139.546646,1881-09,3,7,4.03,142,,
F113310103830,Musashino University,Private,Tokyo To,35.631275,139.786896,1965-01,34,46,3.7,512,47.4,D
F113310103849,Musashino Art University,Private,Tokyo To,35.728161,139.449005,1929-10,6,21,4.01,230,47.7,D
F113310103858,Meisei University,Private,Tokyo To,35.645657,139.409485,1964-03,16,25,3.75,455,46.2,D
F113310103867,WAKO UNIVERSITY,Private,Tokyo To,35.573551,139.463898,1966-01,4,9,3.59,145,36.4,F
F113310103876,Kyorin University,Private,Tokyo To,35.677597,139.565598,1970-04,7,28,3.77,336,45.2,D
F113310103885,Soka University,Private,Tokyo To,35.687759,139.327942,1971-01,23,33,4.35,556,40.5,E
F113310103894,Nihon Bunka University,Private,Tokyo To,35.633663,139.341354,1978-01,1,1,3.22,26,38,F
F113310103901,Tokyo University of Technology,Private,Tokyo To,35.626556,139.341415,1985-12,10,20,3.56,358,43.1,E
F113310103910,Japanese Red Cross College of Nursing,Private,Tokyo To,35.654263,139.717285,1986-02,3,4,4.38,64,51.8,C
F113310103929,Keisen University,Private,Tokyo To,35.60828,139.436417,1987-12,4,7,3.79,91,38.4,F
F113310103938,Tama University,Private,Tokyo To,35.630268,139.463898,1989-04,3,4,3.34,78,35.3,F
F113310103947,Tokyo Junshin University,Private,Tokyo To,35.691895,139.335144,1995-12,2,2,3.58,18,36,F
F113310103956,Kaetsu University,Private,Tokyo To,35.720676,139.514572,2000-12,3,3,3.2,31,37.7,F
F113310103965,Tokyo Fuji University,Private,Tokyo To,35.715672,139.699997,2001-12,2,3,3.48,36,38,F
F113310103974,LEC Graduate University,Private,Tokyo To,35.700062,139.7547,2004-11,1,1,,,,
F113310103983,Digital Hollywood University,Private,Tokyo To,35.698673,139.766403,2004-02,2,2,4.25,84,45.3,D
F113310103992,Shiraume Gakuen University,Private,Tokyo To,35.725597,139.451126,2004-11,2,4,3.95,103,40.7,E
F113310104009,Tokyo Healthcare University,Private,Tokyo To,35.631287,139.726364,2005-04,12,6,3.65,159,42.4,E
F113310104018,Tokyo Seiei College,Private,Tokyo To,35.718178,139.856979,2004-11,1,2,3.79,44,36.3,F
F113310104027,Business Breakthrough University,Private,Tokyo To,35.687626,139.735382,2004-11,1,2,4.23,12,,
F113310104036,"Graduate School of Management, GLOBIS University",Private,Tokyo To,35.685379,139.736298,2005-12,1,1,5,2,,
F113310104045,Bunka Fashion Graduate University,Private,Tokyo To,35.685848,139.693954,2005-12,1,2,,,,
F113310104054,Ohara Graduate School of Accounting,Private,Tokyo To,35.699211,139.756836,2006-01,1,1,3.82,6,,
F113310104063,Tokyo Future University,Private,Tokyo To,35.743179,139.816635,2006-11,4,4,3.87,107,38.3,F
F113310104072,Hollywood Graduate School of Beauty Business,Private,Tokyo To,35.661423,139.729691,2007-12,1,1,3.67,3,,
F113310104081,Sbi Graduate School,Private,Tokyo To,35.664543,139.739487,2007-12,1,1,,,,
F113310104090,Hosen College of Childhood Education,Private,Tokyo To,35.700001,139.678802,2009-10,1,1,3.63,25,37.8,F
F113310104107,Tokyo Ariake University of Medical And Health Sciences,Private,Tokyo To,35.64106,139.7966,2008-10,4,5,3.71,39,36.8,F
F113310104116,Tokyo Polytechnic University,Private,Tokyo To,35.692814,139.679535,1923-03,5,20,3.65,176,42.5,E
F113310104125,Sanno University,Private,Tokyo To,35.613804,139.661514,1978-12,4,5,3.83,228,46.8,D
F113310104134,Yamazaki University of Animal Health Technology,Private,Tokyo To,35.611378,139.375656,2010-04,2,3,3.57,52,40,E
F113310104143,University of Tokyo Health Sciences,Private,Tokyo To,35.612213,139.42894,2011-10,1,2,3.39,33,37.8,F
F113310104152,The Graduate School of Project Design,Private,Tokyo To,35.665565,139.713745,2012-04,1,1,,,,
F113310104161,The Graduate School of Social Design,Private,Tokyo To,35.712387,139.706604,2017-04,2,2,,,,
F113310104170,Teikyo University of Science,Private,Tokyo To,35.753677,139.789429,1989-12,5,20,3.58,232,41.5,E
F114310104632,Seisa University,Private,Kanagawa Ken,35.265572,138.999374,2003-11,2,2,4.15,29,,
F114310104641,Kanagawa University,Private,Kanagawa Ken,35.484413,139.620773,1929-03,17,32,3.68,1017,46.1,D
F114310104650,Kanto Gakuin University,Private,Kanagawa Ken,35.32428,139.625931,1884-10,16,28,3.54,440,38.5,F
F114310104669,Tsurumi University,Private,Kanagawa Ken,35.506329,139.6707,1963-04,4,10,3.75,117,37.3,F
F114310104678,Ferris University,Private,Kanagawa Ken,35.437656,139.525589,1965-01,6,12,4.06,208,35.3,F
F114310104687,Yokohama College of Commerce,Private,Kanagawa Ken,35.498199,139.659317,1966-01,1,3,3.51,49,37.9,F
F114310104696,Yashima Gakuen University,Private,Kanagawa Ken,35.458904,139.622726,2003-11,1,1,3.42,26,,
F114310104703,Institute of Information Security,Private,Kanagawa Ken,35.468109,139.623535,2003-11,1,1,3.28,4,,
F114310104712,Yokohama University of Pharmacy,Private,Kanagawa Ken,35.382626,139.49202,2006-04,2,6,3.68,95,37.8,F
F114310104721,Azabu University,Private,Kanagawa Ken,35.573708,139.392426,1934-04,4,8,3.83,202,42.6,E
F114310104730,Kanagawa Dentaluniversity,Private,Kanagawa Ken,35.29361,139.665237,1964-01,2,2,3.11,23,35.5,F
F114310104749,Kamakura Women’s University,Private,Kanagawa Ken,35.354252,139.538498,1943-01,4,6,3.9,264,41,E
F114310104758,Shonan Institute of Technology,Private,Kanagawa Ken,35.326111,139.453232,1963-01,2,8,3.76,82,35.5,F
F114310104767,Sagami Women’s University,Private,Kanagawa Ken,35.533947,139.427368,1900-09,5,11,3.76,270,36.6,F
F114310104776,Senzoku Gakuen College of Music,Private,Kanagawa Ken,35.594688,139.615311,1967-01,3,8,3.86,177,,
F114310104785,St.Marianna University School of Medicine,Private,Kanagawa Ken,35.59956,139.547073,1971-01,2,2,3.76,22,63,A
F114310104794,Kanagawa Institute of Technology,Private,Kanagawa Ken,35.486244,139.343307,1962-12,6,19,3.59,215,36.4,F
F114310104801,Showa University of Music,Private,Kanagawa Ken,35.600418,139.508041,1940-04,3,8,4.06,85,35,F
F114310104810,Toin University of Yokohama,Private,Kanagawa Ken,35.567417,139.521179,1965-04,6,8,3.71,91,35.9,F
F114310104829,Toyo Eiwa University,Private,Kanagawa Ken,35.508823,139.510101,1988-12,4,6,3.78,153,35.4,F
F114310104838,Shoin University,Private,Kanagawa Ken,35.442726,139.315689,2000-04,5,11,3.47,32,35.3,F
F114310104847,Den-En Chofu University,Private,Kanagawa Ken,35.595226,139.525146,2002-04,4,6,3.64,76,35.8,F
F114310104856,Yokohama University of Art & Design,Private,Kanagawa Ken,35.557827,139.497253,2009-10,1,1,3.92,29,36,F
F114310104865,Japan Institute of The Moving Image,Private,Kanagawa Ken,35.604919,139.507553,2010-10,1,1,3.73,18,36,F
F114310104874,Yokohama Soei University,Private,Kanagawa Ken,35.511475,139.510056,2011-10,3,3,3.56,38,37,F
F114310104883,Shonan University of Medical Sciences,Private,Kanagawa Ken,35.437679,139.548645,2015-04,4,6,3.72,34,38.6,F
F114310104892,SHONAN KAMAKURA UNIVERSITY OF MEDICAL SCIENCES,Private,Kanagawa Ken,35.34156,139.52774,2020-04,2,2,3.67,3,35,F
F115310105104,Nagaoka University,Private,Niigata Ken,37.428562,138.880157,2000-12,1,1,3.44,27,43,E
F115310105113,Niigata University of Health And Welfare,Private,Niigata Ken,37.9664,139.188843,2000-12,7,18,3.89,236,38.1,F
F115310105122,Niigata Seiryo University,Private,Niigata Ken,37.921284,139.025436,1999-12,4,5,3.94,110,42.8,E
F115310105131,Niigata Institute of Technology,Private,Niigata Ken,37.338867,138.576767,1994-12,2,2,3.62,26,35.3,F
F115310105140,Niigata University of Management,Private,Niigata Ken,37.672485,139.065048,1993-12,2,3,3.73,30,36,F
F115310105159,Niigata University of International And Information Studies,Private,Niigata Ken,37.816799,138.899292,1993-12,2,3,3.69,70,45.5,D
F115310105168,Keiwa College,Private,Niigata Ken,37.953205,139.2901,1990-12,1,3,3.45,42,35.2,F
F115310105177,Niigata University of Pharmacy and Applied Life Sciences,Private,Niigata Ken,37.77475,139.12204,1977-01,4,5,3.51,72,35.7,F
F115310105186,International University of Japan,Private,Niigata Ken,37.1479,138.948013,1982-01,2,2,3,1,,
F115310105195,Niigata Sangyo University,Private,Niigata Ken,37.337311,138.593201,1987-12,3,4,3.73,17,37.5,F
F115310105202,Graduate Institute For Entrepreneurial Studies,Private,Niigata Ken,37.907841,139.061737,2005-12,1,1,,,,
F115310105211,Niigata University of Rehabilitation,Private,Niigata Ken,38.185974,139.439468,2007-01,2,2,3.18,23,35.5,F
F115310105220,Niigata Agro-Food University,Private,Niigata Ken,37.968521,139.194901,2017-08,2,2,2.75,4,35.3,F
F115310105239,Kaishi Professional University,Private,Niigata Ken,37.897717,139.067429,2020-04,3,3,4,1,36.5,F
F115310105248,Nagaoka Sutoku University,Private,Niigata Ken,37.425255,138.773346,2019-04,1,1,3.75,4,37.5,F
F116310105336,Takaoka University of Law,Private,Toyama Ken,36.66967,137.001297,1988-12,1,1,3.43,18,35.7,F
F116310105345,Toyama University of International Studies,Private,Toyama Ken,36.601566,137.273621,1989-12,2,2,3.7,65,36.3,F
F116310105354,Toho Gakuen Graduate School,Private,Toyama Ken,36.717968,137.165161,1998-12,1,1,5,1,,
F117310105451,Kanazawa Seiryo University,Private,Ishikawa Ken,36.583309,136.68222,1967-04,4,6,3.77,172,36.5,F
F117310105460,Kanazawa Institute of Technology,Private,Ishikawa Ken,36.529015,136.627518,1965-01,7,23,3.69,259,38.8,F
F117310105479,Kanazawa Medical University,Private,Ishikawa Ken,36.657558,136.647263,1972-03,4,4,3.9,47,54,C
F117310105488,Hokuriku University,Private,Ishikawa Ken,36.524445,136.707336,1975-02,6,8,3.46,78,36.2,F
F117310105497,Kanazawa Gakuin University,Private,Ishikawa Ken,36.515697,136.698029,1986-12,13,16,3.4,128,37.9,F
F117310105503,Kinjo University,Private,Ishikawa Ken,36.508892,136.529785,2000-04,5,7,3.84,103,37.3,F
F117310105512,Hokurikugakuin University,Private,Ishikawa Ken,36.517262,136.670761,2007-12,1,2,3.81,39,37.6,F
F117310111854,Kanazawa Professional University of Food Management,Private,Ishikawa Ken,36.543907,136.586166,2021-04,1,1,,,36,F
F118310105628,Fukui University of Technology,Private,Fukui Ken,36.068718,136.196365,1963-01,4,10,3.59,57,41.6,E
F118310105637,Jin-Ai University,Private,Fukui Ken,35.891541,136.211166,2000-12,3,5,3.85,100,37.5,F
F118310105646,Fukui Health Science University,Private,Fukui Ken,36.130241,136.165817,2016-08,2,3,3.56,9,37.8,F
F119310105707,Yamanashi Gakuin University,Private,Yamanashi Ken,35.657879,138.600906,1962-01,6,7,3.74,138,39,F
F119310105716,Minobusan University,Private,Yamanashi Ken,35.383202,138.428558,1994-12,1,1,5,1,37,F
F119310105725,Yamanashi-Eiwa College,Private,Yamanashi Ken,35.661758,138.613174,2001-12,2,2,3.66,46,36,F
F119310105734,Health Science University,Private,Yamanashi Ken,35.464031,138.744141,2002-12,2,4,3.58,52,35.6,F
F120310105820,Matsumoto Dental University,Private,Nagano Ken,36.127342,137.939728,1972-01,2,2,3.1,11,38.5,F
F120310105839,Matsumoto University,Private,Nagano Ken,36.220024,137.911194,2001-12,5,7,3.91,120,42.7,E
F120310105848,Seisen Jogakuin College,Private,Nagano Ken,36.685642,138.23291,2002-12,5,5,4.1,54,36.5,F
F120310105857,Saku University,Private,Nagano Ken,36.265114,138.463028,2008-04,4,4,3.89,26,38,F
F120310105866,Nagano University of Health And Medicine,Private,Nagano Ken,36.593323,138.145218,2015-04,3,3,3.87,16,40.5,E
F120310111868,MATSUMOTO COLLEGE OF NURSING,Private,Nagano Ken,36.174709,137.93544,2021-04,1,1,3,2,38,F
F121310106016,Chukyo Gakuin University,Private,Gifu Ken,35.476894,137.485397,1992-12,2,2,3.64,44,35.2,F
F121310106025,Gifu Kyoritsu University,Private,Gifu Ken,35.39423,136.619125,1967-01,5,7,3.46,55,35.6,F
F121310106034,Gifu Women’s University,Private,Gifu Ken,35.487743,136.806992,1968-03,5,9,3.77,94,35.5,F
F121310106043,Asahi University,Private,Gifu Ken,35.382084,136.69072,1971-02,8,9,3.76,120,40.1,E
F121310106052,Gifu Shotoku Gakuen University,Private,Gifu Ken,35.361855,136.706558,1972-04,6,7,4.09,241,42.6,E
F121310106061,Tokai Gakuin University,Private,Gifu Ken,35.424854,136.82048,1981-01,3,5,3.52,83,35.3,F
F121310106070,Chubu Gakuin University,Private,Gifu Ken,35.45853,136.897781,1996-12,7,8,3.86,102,35.9,F
F121310106089,Gifu University of Medical Science,Private,Gifu Ken,35.490181,136.948273,2005-12,5,6,3.79,91,40.5,E
F121310106098,Gifu University of Health Sciences,Private,Gifu Ken,35.38459,136.739914,2019-04,3,4,3.91,7,36,F
F122310106275,The Graduate School For The Creation of New Photonics Industries,Private,Shizuoka Ken,34.776619,137.630966,2004-11,1,1,,,,
F122310106284,Shizuoka University of Welfare,Private,Shizuoka Ken,34.829826,138.296936,2003-11,2,4,3.89,61,35.5,F
F122310106293,Hamamatsu Gakuin University,Private,Shizuoka Ken,34.719769,137.713333,2003-11,1,2,3.93,48,35.5,F
F122310106300,Shizuoka Eiwa Gakuin University,Private,Shizuoka Ken,34.982883,138.433868,2001-12,1,2,3.54,54,35.7,F
F122310106319,Tokoha University,Private,Shizuoka Ken,35.004887,138.436478,1980-01,14,25,3.77,348,38.8,F
F122310106328,Shizuoka Institute of Science And Technology,Private,Shizuoka Ken,34.73632,137.957748,1990-12,3,9,3.59,52,40.6,E
F122310106337,Seirei Christopher University,Private,Shizuoka Ken,34.791798,137.689636,1992-04,7,11,4,104,38.8,F
F122310106346,Shizuoka Sangyo University,Private,Shizuoka Ken,34.861412,138.229004,1994-04,3,6,3.64,73,35.5,F
F123310106498,Aichi University of Technology,Private,Aichi Ken,34.832626,137.19342,1999-12,2,4,3.5,28,36,F
F123310106504,Nagoya Sangyo University,Private,Aichi Ken,35.21994,137.031418,2000-04,2,3,3.63,15,36.3,F
F123310106513,University of Human Environments,Private,Aichi Ken,34.897923,137.264633,1999-12,8,10,3.58,58,43.6,E
F123310106522,Nagoya Bunri University,Private,Aichi Ken,35.248829,136.789261,1999-04,2,3,3.68,86,38.9,F
F123310106531,Aichi Mizuho College,Private,Aichi Ken,35.127125,136.921875,1992-12,2,2,3.46,32,38.7,F
F123310106540,Aichi Gakuin University,Private,Aichi Ken,35.158417,137.042679,1953-04,20,30,3.83,610,44,E
F123310106559,Aichi Institute of Technology,Private,Aichi Ken,35.184185,137.111893,1954-02,5,15,3.67,228,45.4,D
F123310106568,Kinjogakuin University,Private,Aichi Ken,35.208553,136.99321,1927-03,9,20,4.02,534,39.1,E
F123310106577,Sugiyama Jogakuen University,Private,Aichi Ken,35.159889,136.987167,1929-11,11,17,3.98,613,41.8,E
F123310106586,Daido University,Private,Aichi Ken,35.078518,136.905609,1964-01,4,13,3.71,129,41.5,E
F123310106595,Chukyo University,Private,Aichi Ken,35.138783,136.965393,1954-04,21,38,3.81,944,51.6,C
F123310106602,Doho University,Private,Aichi Ken,35.163673,136.843185,1921-06,5,6,3.62,71,36.8,F
F123310106611,Nagoya Gakuin University,Private,Aichi Ken,35.128548,136.89859,1964-01,11,16,3.6,249,42.4,E
F123310106620,Nagoya University of Commerce & Business,Private,Aichi Ken,35.147362,137.082047,1953-03,7,11,3.37,122,36.5,F
F123310106639,Nagoya Women’s University,Private,Aichi Ken,35.131889,136.938492,1964-01,5,8,3.79,253,39.5,E
F123310106648,Nanzan University,Private,Aichi Ken,35.14901,136.96315,1946-07,16,35,3.96,955,51.6,C
F123310106657,Nihon Fukushi University,Private,Aichi Ken,34.783028,136.872833,1953-04,15,18,3.76,461,38.2,F
F123310106666,Meijo University,Private,Aichi Ken,35.135921,136.976532,1947-09,20,47,3.84,996,50.8,C
F123310106675,Nagoya College of Music,Private,Aichi Ken,35.163673,136.843185,1976-01,2,5,3.86,70,40,E
F123310106684,Toyota Technological Institute,Private,Aichi Ken,35.106468,136.982498,1981-01,2,4,3.76,36,58,B
F123310106693,Nagoya University of Foreign Studies,Private,Aichi Ken,35.155373,137.040131,1987-12,6,13,3.89,384,52.8,C
F123310106700,Nagoya Zokei University of Art ; Design,Private,Aichi Ken,35.189964,136.905731,1989-12,2,2,3.65,53,42.7,E
F123310106719,Aichi Sangyo University,Private,Aichi Ken,34.919106,137.219589,1991-12,4,7,3.8,36,35.6,F
F123310106728,Tokai Gakuen University,Private,Aichi Ken,35.126869,137.098785,1994-12,7,7,3.56,243,37.2,F
F123310106737,Toyohashi Sozo University,Private,Aichi Ken,34.776573,137.409988,1995-12,4,5,3.54,37,38.6,F
F123310106746,Aichi Toho University,Private,Aichi Ken,35.170525,136.986328,2000-12,3,4,3.54,49,35.4,F
F123310106755,Seijoh University,Private,Aichi Ken,35.033436,136.900803,2001-12,3,3,3.75,51,38.1,F
F123310106764,Aichi Bunkyo University,Private,Aichi Ken,35.300236,137.007355,1997-12,2,2,3.55,10,36,F
F123310106773,Ohkagakuen University,Private,Aichi Ken,35.05722,136.973251,1997-12,2,3,4.21,108,35.3,F
F123310106782,Aichi University,Private,Aichi Ken,35.174255,136.927292,1946-11,14,22,3.83,781,48.4,D
F123310106791,Aichi Gakusen University,Private,Aichi Ken,34.972233,137.143311,1966-03,1,4,3.41,82,36.3,F
F123310106808,Shigakkan University,Private,Aichi Ken,35.031044,136.972305,1963-01,2,5,3.58,111,39.9,E
F123310106817,Chubu University,Private,Aichi Ken,35.274693,137.015121,1964-04,13,50,3.73,560,43.8,E
F123310106826,Fujita Health University,Private,Aichi Ken,35.070999,137.001389,1968-05,5,9,3.73,199,51.7,C
F123310106835,Nagoya University of The Arts,Private,Aichi Ken,35.256161,136.880783,1970-04,7,9,3.72,115,36.6,F
F123310106844,Aichi Medical University,Private,Aichi Ken,35.19241,137.048386,1971-12,4,5,3.76,63,55.2,B
F123310106853,Aichi Shukutoku University,Private,Aichi Ken,35.15873,137.031342,1975-01,15,20,3.84,772,44.4,D
F123310106862,Nagoya University of Economics,Private,Aichi Ken,35.319664,136.953247,1978-12,7,10,3.38,81,38.3,F
F123310106871,Nagoya University of Arts And Sciences,Private,Aichi Ken,35.155373,137.040131,2001-12,8,10,4.16,291,52.5,C
F123310106880,Japanese Red Cross Toyota College of Nursing,Private,Aichi Ken,35.100468,137.120712,2003-11,2,3,3.88,38,41,E
F123310106899,Shubun University,Private,Aichi Ken,35.300484,136.781296,2007-12,3,3,3.47,35,37.4,F
F123310106906,Okazaki Women’s University,Private,Aichi Ken,34.954697,137.185226,2012-11,1,1,4.1,42,35.5,F
F123310106915,Ichinomiya Kenshin College,Private,Aichi Ken,35.316635,136.811523,2017-04,1,1,4,4,42.3,E
F123310106924,Nagoya Ryujo Women's University,Private,Aichi Ken,35.146511,136.932465,1898-04,1,1,4.12,7,37.5,F
F123310111883,International Professional University of Technology in Nagoya,Private,Aichi Ken,35.16843,136.8862,2021-04,2,3,5,1,,
F124310107165,Yokkaichi University,Private,Mie Ken,35.022343,136.605225,1987-12,2,2,3.65,32,36.5,F
F124310107174,Kogakkan University,Private,Mie Ken,34.488365,136.726547,1962-02,6,11,3.9,178,41.4,E
F124310107183,Suzuka University of Medical Science,Private,Mie Ken,34.858315,136.59938,1990-12,6,14,3.59,161,41.5,E
F124310107192,Suzuka University,Private,Mie Ken,34.8144,136.534454,1994-04,4,4,3.51,21,38,F
F124310107209,Yokkaichi Nursing And Medical Care University,Private,Mie Ken,35.022343,136.605225,2006-11,2,3,3.76,42,42.3,E
F125310107315,Seian University of Art And Design,Private,Shiga Ken,35.107018,135.902008,1992-12,1,1,3.75,35,53,C
F125310107324,Seisen University,Private,Shiga Ken,35.20517,136.204422,2002-12,4,4,3.39,30,35.5,F
F125310107333,Nagahama Institute of Bio-Science And Technology,Private,Shiga Ken,35.356911,136.28038,2002-12,2,4,3.76,55,40.3,E
F125310107342,Biwako Seikei Sport College,Private,Shiga Ken,35.227333,135.94754,2003-04,2,2,3.88,57,36,F
F125310107351,Biwako-Gakuin University,Private,Shiga Ken,35.088188,136.184052,2008-10,1,2,3.63,33,37,F
F125310107360,Biwako Professional University of Rehabilitation,Private,Shiga Ken,35.132339,136.275558,2020-04,1,2,5,1,37.8,F
F126310107476,Heian Jogakuin st.Agnes University,Private,Kyoto Fu,35.019299,135.757797,1999-12,2,2,3.85,50,35.5,F
F126310107485,Otani University,Private,Kyoto Fu,35.042549,135.759064,1923-04,5,18,3.88,202,37.7,F
F126310107494,Kyoto University of Foreign Studies,Private,Kyoto Fu,35.004147,135.718948,1959-04,4,14,3.81,352,44.9,D
F126310107500,Kyoto Sangyo University,Private,Kyoto Fu,35.066345,135.754211,1965-01,21,40,3.81,723,46.3,D
F126310107519,Kyoto Women’s University,Private,Kyoto Fu,34.989666,135.778442,1920-03,10,24,3.91,787,49,D
F126310107528,Kyoto    Pharmaceutical  University,Private,Kyoto Fu,34.990833,135.809723,1919-03,2,3,3.97,191,53.5,C
F126310107537,Kyoto Koka Women’s University,Private,Kyoto Fu,34.996956,135.718384,1944-03,6,9,3.79,141,35.9,F
F126310107546,Shuchiin University,Private,Kyoto Fu,34.912777,135.766678,1929-04,1,2,3.97,8,35,F
F126310107555,Kyoto Tachibana University,Private,Kyoto Fu,34.968323,135.82515,1967-01,15,22,3.94,338,44.7,D
F126310107564,Doshisha University,Private,Kyoto Fu,34.968323,135.82515,1904-03,30,69,4.06,2011,59,B
F126310107573,Doshisha Women’s College of Liberal Arts,Private,Kyoto Fu,34.80452,135.772675,1912-02,12,20,4.15,729,48.2,D
F126310107582,Kyoto Notre Dame University,Private,Kyoto Fu,35.051197,135.770004,1961-03,5,9,3.98,107,35.5,F
F126310107591,Hanazono University,Private,Kyoto Fu,35.01722,135.726288,1911-09,4,10,3.83,99,35.5,F
F126310107608,Bukkyo University,Private,Kyoto Fu,35.043476,135.737289,1912-05,22,42,3.89,505,43.7,E
F126310107617,Ritsumeikan University,Private,Kyoto Fu,35.009155,135.742157,1900-05,37,57,3.9,2452,55.4,B
F126310107626,Ryukoku University,Private,Kyoto Fu,34.963924,135.766693,1922-05,22,60,3.85,1280,46.4,D
F126310107635,Kyoto University of Advanced Science,Private,Kyoto Fu,35.010235,135.719025,1969-04,10,17,3.51,115,37.7,F
F126310107644,Kyoto Seika University,Private,Kyoto Fu,35.075008,135.769882,1978-12,11,17,3.92,157,44.6,D
F126310107653,Meiji University of Integrative Medicine,Private,Kyoto Fu,35.173378,135.487335,1983-04,5,8,3.78,28,36.3,F
F126310107662,Kyoto University of the Arts,Private,Kyoto Fu,35.037243,135.794586,1990-12,3,18,3.88,187,41.4,E
F126310107671,Kyoto Bunkyo University,Private,Kyoto Fu,34.914272,135.785049,1995-12,4,4,3.76,127,35.1,F
F126310107680,Kyoto Saga University of Arts,Private,Kyoto Fu,35.013035,135.688416,2000-12,2,3,3.93,39,41,E
F126310107699,The Kyoto College of Graduate Studies For Informatics,Private,Kyoto Fu,35.030453,135.779221,2004-01,1,1,,,,
F126310107706,Kyoto College of Medical Science,Private,Kyoto Fu,35.102692,135.479446,2006-11,1,1,3.86,20,43,E
F126310107715,Kyoto Kacho University,Private,Kyoto Fu,35.007614,135.780304,2010-10,1,2,3.82,48,35.1,F
F126310107724,Kyoto Arts And Crafts University,Private,Kyoto Fu,35.007614,135.780304,2011-10,3,3,4.03,14,39.3,E
F126310107733,Kyoto College of Nursing,Private,Kyoto Fu,34.997562,135.73465,2013-10,2,2,3.25,27,42,E
F127310107894,Osaka University of Economics,Private,Osaka Fu,34.750027,135.543991,1935-09,9,11,3.78,430,43.8,E
F127310107901,Osaka Institute of Technology,Private,Osaka Fu,34.730782,135.54538,1940-03,8,26,3.81,290,45.1,D
F127310107910,Osaka Dental University,Private,Osaka Fu,34.858795,135.676361,1911-12,4,6,3.61,28,45,D
F127310107929,Soai University,Private,Osaka Fu,34.634575,135.424088,1958-01,5,8,3.79,91,35.5,F
F127310107938,Momoyama Gakuin University,Private,Osaka Fu,34.452583,135.454117,1959-01,10,12,3.58,305,41.5,E
F127310107947,Setsunan University,Private,Osaka Fu,34.779728,135.613068,1975-01,16,29,3.64,365,43.4,E
F127310107956,Momoyama Gakuin University of Education,Private,Osaka Fu,34.483715,135.533585,1995-12,1,1,3.66,27,40.6,E
F127310107965,Osaka Medical and Pharmaceutical University,Private,Osaka Fu,34.85186,135.624405,1904-05,6,9,4.11,9,57,B
F127310107974,Osaka College of Music,Private,Osaka Fu,34.753349,135.470444,1958-01,3,7,4,117,35,F
F127310107983,Osaka Gakuin University,Private,Osaka Fu,34.773399,135.541901,1963-04,13,14,3.58,194,39.7,E
F127310107992,Osaka University of Arts,Private,Osaka Fu,34.51239,135.630569,1964-01,3,25,3.79,415,43.3,E
F127310108009,Osaka Sangyo University,Private,Osaka Fu,34.70779,135.646149,1965-04,11,27,3.46,247,38.8,F
F127310108018,Osaka Shoin Women’s University,Private,Osaka Fu,34.663212,135.578369,1925-12,6,13,3.86,195,36.8,F
F127310108027,Osaka University of Commerce,Private,Osaka Fu,34.666237,135.583664,1928-04,4,7,3.56,157,41.3,E
F127310108036,Osaka University of Health And Sport Sciences,Private,Osaka Fu,34.380264,135.358826,1965-01,3,4,4.13,142,40.8,E
F127310108045,Osaka Electro-Communication University,Private,Osaka Fu,34.760239,135.627777,1961-03,7,17,3.78,201,43.7,E
F127310108063,Osaka Ohtani University,Private,Osaka Fu,34.481937,135.58226,1966-01,7,10,3.78,201,41.2,E
F127310108072,Otemon Gakuin University,Private,Osaka Fu,34.846218,135.558502,1966-01,11,14,3.56,381,45.8,D
F127310108081,Kansai University,Private,Osaka Fu,34.769669,135.510162,1904-01,29,44,3.95,2661,55.6,B
F127310108090,Kansai Medical University,Private,Osaka Fu,34.818779,135.645493,1928-06,5,6,4.07,37,52.5,C
F127310108107,Kansai Gaidai University,Private,Osaka Fu,34.822128,135.667068,1966-01,5,7,3.71,1072,50,C
F127310108116,Kindai University,Private,Osaka Fu,34.65155,135.587158,1925-03,28,73,3.86,2246,49.6,C
F127310108125,Shitennoji University,Private,Osaka Fu,34.54615,135.583755,1967-01,6,9,3.88,251,42,E
F127310108134,Tezukayamagakuin University,Private,Osaka Fu,34.489052,135.532791,1966-01,3,7,3.85,103,42.8,E
F127310108143,Baika Women’s University,Private,Osaka Fu,34.841614,135.535049,1922-03,7,14,3.83,169,39.4,E
F127310108152,Hannan University,Private,Osaka Fu,34.592194,135.534409,1965-01,6,6,3.76,273,39.5,E
F127310108161,Osaka University of Economics and Law,Private,Osaka Fu,34.641026,135.645554,1971-01,5,6,3.53,124,42,E
F127310108170,Osaka International University,Private,Osaka Fu,34.748039,135.603439,1987-12,5,9,3.78,139,39.4,E
F127310108189,Kansai University of Welfare Sciences,Private,Osaka Fu,34.559875,135.636398,1996-12,6,8,3.79,194,35.8,F
F127310108198,Taisei Gakuin University,Private,Osaka Fu,34.526031,135.578201,1997-12,3,5,3.32,44,36.6,F
F127310108205,Tokiwakai Gakuen University,Private,Osaka Fu,34.616505,135.561798,1998-12,1,1,3.82,33,35,F
F127310108214,Osaka University of Tourism,Private,Osaka Fu,34.392704,135.339508,2000-04,3,3,3.39,20,35,F
F127310108223,Osaka University of Human Sciences,Private,Osaka Fu,34.779377,135.547882,2000-12,4,10,3.6,78,35.4,F
F127310108232,Hagoromo University of International Studies,Private,Osaka Fu,34.534309,135.447662,2001-12,2,4,3.51,47,35.3,F
F127310108241,Osaka Seikei University,Private,Osaka Fu,34.758598,135.537384,2003-04,5,7,3.71,136,40.5,E
F127310108250,Kansai University of Health Sciences,Private,Osaka Fu,34.406616,135.3703,2003-04,3,7,3.92,83,39.8,E
F127310108269,Senri Kinran University,Private,Osaka Fu,34.826584,135.515549,2002-12,3,4,3.8,86,38.3,F
F127310108278,Higashiosaka College,Private,Osaka Fu,34.674828,135.580933,2002-12,1,2,3.83,86,35.5,F
F127310108287,Osaka Jogakuin University,Private,Osaka Fu,34.676949,135.526535,2003-11,2,2,3.91,57,36,F
F127310108296,Aino University,Private,Osaka Fu,34.843227,135.581833,2004-04,2,5,3.53,84,40.3,E
F127310108303,Osaka Aoyama University,Private,Osaka Fu,34.83382,135.457367,2004-11,2,3,3.73,76,39.3,E
F127310108312,Shijonawate Gakuen University,Private,Osaka Fu,34.727669,135.646805,2004-11,2,2,3.9,26,38,F
F127310108321,Osaka Kawasaki Rehabilitation University,Private,Osaka Fu,34.404541,135.38707,2006-04,2,2,3.8,31,,
F127310108330,Osaka University of Comprehensive Children Education,Private,Osaka Fu,34.60725,135.538864,1942-12,2,3,4.06,58,40,E
F127310108349,Morinomiya University of Medical Sciences,Private,Osaka Fu,34.641914,135.413635,2006-11,5,11,3.9,76,44.3,D
F127310108358,Osaka Health Science University,Private,Osaka Fu,34.693417,135.519669,2008-10,3,3,4.01,44,38,F
F127310108367,Butsuryo College of Osaka,Private,Osaka Fu,34.538174,135.462921,2010-10,1,1,3.51,20,38,F
F127310108376,Jikei University of Health Care Sciences,Private,Osaka Fu,34.734314,135.500031,2010-10,2,2,4,2,36.3,F
F127310108385,Osaka Yukioka College of Health Science,Private,Osaka Fu,34.828323,135.580566,2011-10,1,1,3.41,7,39,F
F127310108394,Yamato University,Private,Osaka Fu,34.765766,135.519043,2013-10,5,7,3.7,134,52.1,C
F127310108900,Takarazuka University,Private,Osaka Fu,34.707886,135.497284,1986-12,4,4,3.55,50,38.3,F
F127310111898,International Professional University of Technology in Osaka,Private,Osaka Fu,34.699421,135.49324,2021-04,2,3,4,1,,
F128310108703,Konan University,Private,Hyogo Ken,34.729561,135.268463,1923-01,13,27,3.88,673,48.6,D
F128310108712,Konan Women’s University,Private,Hyogo Ken,34.734211,135.288895,1964-01,7,15,3.98,393,42.7,E
F128310108721,Kobe Kaisei College,Private,Hyogo Ken,34.712616,135.21196,1965-01,1,2,3.87,35,36,F
F128310108730,Kobe Gakuin University,Private,Hyogo Ken,34.672279,135.203583,1966-01,18,26,3.6,603,39.5,E
F128310108749,Kobe Women’s University,Private,Hyogo Ken,34.658886,135.109131,1966-03,10,20,3.84,364,43.6,E
F128310108758,Kobe Pharmaceutical University,Private,Hyogo Ken,34.732506,135.283752,1932-03,2,3,3.68,124,48.3,D
F128310108767,Kobe Shoin Women’s University,Private,Hyogo Ken,34.72765,135.229904,1947-03,4,14,3.86,166,39.3,E
F128310108776,Kobe Shinwa Women’S University,Private,Hyogo Ken,34.727726,135.154785,1966-04,4,9,3.9,174,,
F128310108785,Kobe International University,Private,Hyogo Ken,34.681519,135.271103,1968-02,3,4,3.66,88,35.2,F
F128310108794,Hyogo University,Private,Hyogo Ken,34.746761,134.881317,1994-12,7,9,3.68,94,38.4,F
F128310108801,Kobe Tokiwa University,Private,Hyogo Ken,34.6661,135.140472,2007-12,2,5,3.8,116,39.5,E
F128310108810,Takarazuka University of Medical and Health Care,Private,Hyogo Ken,34.835621,135.401855,2010-10,4,6,3.7,27,36.3,F
F128310108829,Ashiya University,Private,Hyogo Ken,34.753239,135.30777,1964-01,4,7,3.67,57,35,F
F128310108838,Otemae University,Private,Hyogo Ken,34.737976,135.325104,1966-01,7,7,3.63,230,39.1,E
F128310108847,Kwansei Gakuin University,Private,Hyogo Ken,34.767162,135.34436,1908-09,29,63,4,1990,54.2,B
F128310108856,Koshien University,Private,Hyogo Ken,34.806511,135.33316,1967-01,4,5,3.55,57,37,F
F128310108865,Kobe College,Private,Hyogo Ken,34.759605,135.350464,1909-10,6,9,4.23,296,41,E
F128310108874,Sonoda Women’s University,Private,Hyogo Ken,34.749084,135.411011,1966-01,3,5,3.59,131,37,F
F128310108883,Mukogawa Women’s University,Private,Hyogo Ken,34.717453,135.374451,1949-04,19,33,4.01,969,45.8,D
F128310108892,Hyogo Medical University,Private,Hyogo Ken,34.719002,135.378647,1971-11,8,10,3.94,34,47.3,D
F128310108918,Himeji Dokkyo University,Private,Hyogo Ken,34.873276,134.688828,1986-12,7,12,3.71,107,35.8,F
F128310108927,University of Marketing And Distribution Sciences,Private,Hyogo Ken,34.687099,135.057877,1987-12,4,8,3.78,98,39.6,E
F128310108936,Kobe Design University,Private,Hyogo Ken,34.677147,135.055939,1988-12,4,12,3.78,87,38.1,F
F128310108945,Kansai University of Social Welfare,Private,Hyogo Ken,34.761024,134.368454,1996-12,6,7,3.74,53,42.4,E
F128310108954,Kansai University of International Studies,Private,Hyogo Ken,34.771805,135.044052,1997-12,10,12,3.57,141,35.9,F
F128310108963,Kobe University of Welfare,Private,Hyogo Ken,34.97525,134.726196,1999-12,1,3,3.67,27,35.3,F
F128310108972,Kobe Institute of Computing - Graduate School of Information Technology,Private,Hyogo Ken,34.698917,135.193039,2005-04,1,1,3.63,2,,
F128310108981,Kansai University of Nursing And Health Sciences,Private,Hyogo Ken,34.4356,134.901291,2005-12,2,2,3.9,23,40,E
F128310108990,Hyogo University of Health Sciences,Private,Hyogo Ken,34.666256,135.203979,2006-11,6,7,3.99,87,,
F128310109007,Himeji University,Private,Hyogo Ken,34.773808,134.75943,2006-11,4,4,3.72,65,37.5,F
F129310109257,Tezukayama University,Private,Nara Ken,34.686455,135.722137,1964-01,8,9,3.7,210,40.8,E
F129310109266,Tenri University,Private,Nara Ken,34.597195,135.845306,1925-02,8,12,4.17,173,39.1,E
F129310109275,Nara University,Private,Nara Ken,34.714764,135.783218,1969-03,5,11,3.86,177,39,F
F129310109284,Naragakuen University,Private,Nara Ken,34.721218,135.747269,1983-12,3,4,3.76,41,38.4,F
F129310109293,Kio University,Private,Nara Ken,34.546612,135.723099,2002-12,6,9,4.04,226,46.2,D
F129310109300,Tenri Health Care University,Private,Nara Ken,34.607342,135.83638,2011-10,1,2,3.53,19,,
F130310109370,Koyasan University,Private,Wakayama Ken,34.211441,135.585602,1926-04,3,6,4.33,5,35.5,F
F130310109389,Wakayama Shin-ai University,Private,Wakayama Ken,34.236881,135.176102,2019-04,1,1,3.79,14,37.3,F
F130310111919,Wakayama Professional University of Rehabilitation,Private,Wakayama Ken,34.233154,135.163116,2021-04,1,1,,,37.8,F
F131310109431,Tottori College of Nursing,Private,Tottori Ken,35.456047,133.859024,2015-04,2,2,4.23,11,39.5,E
F133310109536,Kibi International University,Private,Okayama Ken,34.796394,133.620956,1989-12,15,22,3.67,55,37.1,F
F133310109545,Okayama Shoka University,Private,Okayama Ken,34.683128,133.90094,1955-03,6,7,3.71,59,37.1,F
F133310109554,Okayama University of Science,Private,Okayama Ken,34.695194,133.924484,1964-01,16,47,3.69,320,38.9,F
F133310109563,Kurashiki Sakuyo University,Private,Okayama Ken,34.574867,133.677567,1966-04,4,5,3.84,120,36.4,F
F133310109572,Notre Dame Seishin University,Private,Okayama Ken,34.672947,133.916412,1944-02,4,13,4.08,261,49.5,C
F133310109581,Kawasaki Medical School,Private,Okayama Ken,34.631077,133.809937,1970-03,2,2,3.57,18,60,A
F133310109590,Shujitsu University,Private,Okayama Ken,34.676815,133.93541,1979-02,7,10,3.96,196,41.8,E
F133310109607,Kawasaki University of Medical Welfare,Private,Okayama Ken,34.63422,133.810959,1990-12,8,31,3.79,285,38.5,F
F133310109616,Sanyo Gakuen University,Private,Okayama Ken,34.642506,133.94426,1994-04,5,6,3.57,41,38,F
F133310109625,Kurashiki University of Science And The Arts,Private,Okayama Ken,34.555973,133.712479,1994-12,9,14,3.63,78,36.7,F
F133310109634,Okayama Gakuin University,Private,Okayama Ken,34.572922,133.799286,2001-12,1,1,3.43,14,35,F
F133310109643,Chugokugakuen University,Private,Okayama Ken,34.650665,133.849426,2001-12,5,5,3.76,51,35.5,F
F133310109652,International Pacific University,Private,Okayama Ken,34.729137,134.012451,2006-11,5,7,3.75,79,36,F
F133310109661,Okayama Healthcare Professional University,Private,Okayama Ken,34.656384,133.916397,2020-04,1,2,2,1,35.5,F
F133310109670,Mimasaka University,Private,Okayama Ken,35.076176,134.00824,1967-02,3,5,4.09,65,41.5,E
F134310109839,Elisabeth University of Music,Private,Hiroshima Ken,34.395115,132.467819,1952-03,2,7,3.54,29,36,F
F134310109848,Hiroshima University of Economics,Private,Hiroshima Ken,34.447708,132.455368,1967-01,4,6,3.74,100,38.6,F
F134310109857,Hiroshima Institute of Technology,Private,Hiroshima Ken,34.370216,132.342941,1963-04,5,20,3.69,149,41,E
F134310109866,Hiroshima Shudo University,Private,Hiroshima Ken,34.435001,132.403549,1960-01,11,23,3.89,413,42.6,E
F134310109875,Hiroshima Jogakuin University,Private,Hiroshima Ken,34.413734,132.484268,1932-02,4,9,3.9,106,36.8,F
F134310109884,Hiroshima Kokusai Gakuin University,Private,Hiroshima Ken,34.410328,132.579514,1967-01,4,6,3.58,16,,
F134310109893,Hiroshima Bunkyo University,Private,Hiroshima Ken,34.505554,132.51973,1948-03,3,6,4.08,106,39.4,E
F134310109900,Yasuda Women’s University,Private,Hiroshima Ken,34.480515,132.452377,1966-01,11,20,4.28,472,42.7,E
F134310109919,Fukuyama University,Private,Hiroshima Ken,34.463791,133.244263,1975-01,9,25,3.76,167,37.7,F
F134310109928,Hijiyama University,Private,Hiroshima Ken,34.427959,132.474304,1993-12,4,8,3.73,94,36.9,F
F134310109937,Fukuyama Heisei University,Private,Hiroshima Ken,34.54808,133.346588,1993-12,7,9,3.7,68,36.9,F
F134310109946,Hiroshima Bunka Gakuen University,Private,Hiroshima Ken,34.288696,132.637268,1994-12,7,8,3.52,91,35.6,F
F134310109955,Hiroshima InternationalUniversity,Private,Hiroshima Ken,34.313538,132.687531,1997-12,16,21,3.61,265,43.3,E
F134310109964,Japanese Red Cross Hiroshima College of Nursing,Private,Hiroshima Ken,34.335869,132.309082,1999-12,2,3,3.9,42,42,E
F134310109973,Hiroshima Cosmopolitan University,Private,Hiroshima Ken,34.359978,132.457932,2008-10,4,5,3.41,37,35.9,F
F135310110096,Baiko Gakuin University,Private,Yamaguchi Ken,33.967678,130.933243,1967-01,3,4,3.34,55,36.5,F
F135310110112,The University of East Asia,Private,Yamaguchi Ken,34.000916,130.948242,1974-02,6,14,3.86,32,35.5,F
F135310110121,Shiseikan University,Private,Yamaguchi Ken,34.426121,131.413086,1998-12,1,1,3.47,4,38.5,F
F135310110130,Ube Frontier University,Private,Yamaguchi Ken,33.980694,131.234238,2001-12,4,4,3.84,21,35.3,F
F135310110149,Yamaguchi Gakugei University,Private,Yamaguchi Ken,34.120808,131.401886,2006-11,2,2,4.01,19,38.5,F
F136310110255,Shikoku University,Private,Tokushima Ken,34.102814,134.553314,1966-01,8,14,3.78,144,36.7,F
F136310110264,Tokushima Bunri University,Private,Tokushima Ken,34.072392,134.553452,1966-01,17,37,3.74,229,35.9,F
F137310110334,Shikoku Gakuin University,Private,Kagawa Ken,34.225399,133.785568,1950-03,6,6,3.74,66,35.5,F
F137310110343,Takamatsu University,Private,Kagawa Ken,34.32811,134.087769,1995-12,4,4,3.84,51,38,F
F138310110404,Matsuyama University,Private,Ehime Ken,33.851158,132.767639,1923-02,11,12,3.7,456,38.5,F
F138310110413,St.Catherine University,Private,Ehime Ken,33.978985,132.779617,1987-12,2,5,3.97,39,35.3,F
F138310110422,Matsuyama Shinonome College,Private,Ehime Ken,33.831757,132.796432,1991-12,1,1,3.97,62,35.5,F
F139310110537,Kochi Professional University of Rehabilitation,Private,Kochi Ken,33.500893,133.410797,2019-04,1,1,4,1,35.5,F
F139310110546,Kochi Gakuen University,Private,Kochi Ken,33.560822,133.506653,2020-04,1,2,4,3,35.5,F
F140310110641,Kyushu Kyoritsu University,Private,Fukuoka Ken,33.870468,130.703064,1965-01,4,5,3.7,82,36.2,F
F140310110650,Kyushu Women’s University,Private,Fukuoka Ken,33.870468,130.703064,1962-04,2,3,3.64,113,35.5,F
F140310110669,Kyushu International University,Private,Fukuoka Ken,33.86253,130.79277,1947-03,4,5,3.56,70,35.5,F
F140310110678,Fukuoka Dental College,Private,Fukuoka Ken,33.546623,130.331177,1972-07,2,2,3.44,18,36.5,F
F140310110687,Kyushu Sangyo University,Private,Fukuoka Ken,33.670216,130.444656,1960-01,20,41,3.86,407,42.8,E
F140310110696,Kurume University,Private,Fukuoka Ken,33.328121,130.511475,1928-02,15,34,3.83,334,41.5,E
F140310110703,Seinan Gakuin University,Private,Fukuoka Ken,33.584869,130.356842,1921-02,19,26,4.02,687,51.7,C
F140310110712,Daiichi University of Pharmacy,Private,Fukuoka Ken,33.565372,130.417648,1960-01,3,5,3.39,44,35.5,F
F140310110721,Nakamura Gakuen University,Private,Fukuoka Ken,33.573196,130.367905,1965-01,6,7,4.04,318,43.4,E
F140310110730,Nishinippon Institute of Technology,Private,Fukuoka Ken,33.753147,130.973511,1967-01,3,4,3.87,40,35.1,F
F140310110749,Fukuoka University,Private,Fukuoka Ken,33.546928,130.363129,1934-04,21,65,3.98,1298,47.6,D
F140310110758,Fukuoka Institute of Technology,Private,Fukuoka Ken,33.696144,130.441742,1963-04,5,20,3.87,170,43,E
F140310110767,Japan University of Economics,Private,Fukuoka Ken,33.506367,130.527756,1968-03,3,7,3.7,57,35.5,F
F140310110776,Kurume Institute of Technology,Private,Fukuoka Ken,33.270023,130.526123,1966-04,2,8,3.68,39,36.8,F
F140310110785,"University of Occupational and Environmental Health, Japan",Private,Fukuoka Ken,33.876781,130.709549,1977-12,3,6,3.76,71,50.3,C
F140310110794,Chikushi Jogakuen University,Private,Fukuoka Ken,33.512836,130.537613,1987-12,4,6,3.97,220,35.9,F
F140310110801,Fukuoka Jo Gakuin University,Private,Fukuoka Ken,33.53281,130.441666,1989-12,4,10,3.92,174,36.9,F
F140310110810,Seinan Jo Gakuin University,Private,Fukuoka Ken,33.88451,130.849899,1993-12,3,6,3.78,127,36.7,F
F140310110829,Kyushu Institute of Information Sciences University,Private,Fukuoka Ken,33.525135,130.53717,1997-12,3,4,3.71,12,36.5,F
F140310110838,Kyushu Nutrition Welfare University,Private,Fukuoka Ken,33.877014,130.858078,2000-12,3,4,3.9,51,36.5,F
F140310110847,Japanese Red Cross Kyushu International College of Nursing,Private,Fukuoka Ken,33.796188,130.609161,2000-12,2,3,3.88,33,38,F
F140310110856,St.Mary’s College,Private,Fukuoka Ken,33.304573,130.509384,2006-04,3,3,3.74,35,40.5,E
F140310110865,Cyber University,Private,Fukuoka Ken,33.662762,130.423126,2006-11,1,1,3.83,37,,
F140310110874,Fukuoka Jo Gakuin Nursing University,Private,Fukuoka Ken,33.740604,130.473541,2007-12,1,1,4.52,34,40.5,E
F140310110883,College of Healthcare Management,Private,Fukuoka Ken,33.146324,130.459808,2007-12,1,1,3.24,4,,
F140310110892,Junshin Gakuen University,Private,Fukuoka Ken,33.558674,130.420029,2010-10,2,6,3.45,49,39.6,E
F140310110909,Fukuoka Nursing College,Private,Fukuoka Ken,33.546623,130.331177,2016-08,2,2,3,5,38.5,F
F140310110918,Fukuoka International University of Health and Welfare,Private,Fukuoka Ken,33.591415,130.349396,2018-08,3,5,3.74,24,40.9,E
F141310111140,Nishikyushu University,Private,Saga Ken,33.331242,130.344986,1968-02,6,13,3.83,119,35.5,F
F142310111201,Nagasaki Institute of Applied Science,Private,Nagasaki Ken,32.750111,129.942505,1945-03,3,7,3.65,34,35.6,F
F142310111210,Kwassui Women’s University,Private,Nagasaki Ken,32.738106,129.873413,1981-01,5,8,3.76,118,35.6,F
F142310111229,Nagasaki Junshin Catholic University,Private,Nagasaki Ken,32.802841,129.907333,1993-12,2,6,3.92,109,36.8,F
F142310111238,Nagasaki International University,Private,Nagasaki Ken,33.101685,129.789978,1999-12,6,9,3.95,110,36.6,F
F142310111247,Nagasaki University of Foreign Studies,Private,Nagasaki Ken,32.814011,129.841446,2000-12,1,2,3.76,55,36.3,F
F142310111256,Nagasaki Wesleyan University,Private,Nagasaki Ken,32.858086,130.030273,2001-12,1,3,3.71,20,35.5,F
F143310111317,Sojo University,Private,Kumamoto Ken,32.831253,130.695465,1965-01,9,25,3.85,166,42.5,E
F143310111326,Kumamoto Gakuen University,Private,Kumamoto Ken,32.804508,130.728745,1954-02,10,17,3.8,290,39.4,E
F143310111335,Shokei University,Private,Kumamoto Ken,32.797447,130.716278,1975-01,2,2,3.51,41,35.8,F
F143310111344,Kyushu Lutheran College,Private,Kumamoto Ken,32.820332,130.722031,1996-12,2,3,4.28,44,40,E
F143310111353,Kyushu University of Nursing And Social Welfare,Private,Kumamoto Ken,32.946815,130.553604,1998-04,3,9,3.72,86,37.4,F
F143310111362,Heisei College of Music,Private,Kumamoto Ken,32.712303,130.791824,1972-04,2,3,3.72,23,,
F143310111371,Kumamoto Health Science University,Private,Kumamoto Ken,32.852104,130.68782,2002-12,3,5,4.11,85,39.3,E
F144310111432,Nippon Bunri University,Private,Oita Ken,33.231152,131.725113,1967-01,4,8,3.63,62,36.9,F
F144310111441,Beppu University,Private,Oita Ken,33.312283,131.490509,1947-04,6,12,3.87,110,35.6,F
F144310111450,Ritsumeikan Asia Pacific University,Private,Oita Ken,33.284721,131.491104,1999-12,4,5,3.94,195,50.6,C
F145310111556,Minami Kyushu University,Private,Miyazaki Ken,31.93807,131.414932,1967-02,4,6,4.11,73,,
F145310111565,Miyazaki Sangyo-Keiei University,Private,Miyazaki Ken,31.882841,131.404449,1987-02,2,2,3.78,36,38.5,F
F145310111574,Miyazaki International College,Private,Miyazaki Ken,31.87104,131.387329,1993-12,2,2,3.68,22,36.3,F
F145310111583,Kyushu University of Health And Welfare,Private,Miyazaki Ken,32.56876,131.613464,1998-12,9,13,3.64,91,,
F146310111644,The International University of Kagoshima,Private,Kagoshima Ken,31.493916,130.496445,1932-03,6,9,3.89,139,36.8,F
F146310111653,Daiichi Institute of Technology,Private,Kagoshima Ken,31.745907,130.768463,1966-01,2,5,4.02,28,35.5,F
F146310111662,Shigakukan University,Private,Kagoshima Ken,31.559242,130.542252,1978-12,3,5,3.84,86,36,F
F146310111671,Kagoshima Immaculate Heart University,Private,Kagoshima Ken,31.826616,130.327606,1993-12,3,4,4.04,60,36.2,F
F147310111778,Okinawa Institute of Science and Technology Graduate University,Private,Okinawa Ken,26.464243,127.830719,2011-10,1,1,3.64,3,,
F147310111787,Okinawa International University,Private,Okinawa Ken,26.263245,127.755028,1972-02,7,15,3.95,263,41.6,E
F147310111796,Okinawa University,Private,Okinawa Ken,26.200539,127.699211,1961-03,4,7,3.88,121,37.5,F
F147310111803,Okinawa Christian University,Private,Okinawa Ken,26.23896,127.754646,2003-11,2,2,4.23,25,39,F
F108310111971,R Professional University of Rehabilitation,Private,Ibaraki Ken,36.084904,140.212311,2022-04,1,2,2,1,37.5,F
F127310111950,Osaka Shin-Ai  Gakuin University,Private,Osaka Fu,34.711761,135.559464,2022-04,2,2,,,38.8,F
F140310112006,Reiwa Health Sciences University,Private,Fukuoka Ken,33.690834,130.432571,2022-04,2,3,3.5,2,36,F
